피난처 ID,시도명,시군구명,시설명,상세주소,시설면적,경도,위도,구분,구분명,관리부서
0,서울특별시,용산구,용산공업고등학교,서울특별시 용산구  서빙고로 24  (한강로3가),19129,126.967082,37.524409,1,지진실내구호소,3
0,서울특별시,강남구,개원초등학교 운동장,서울특별시 강남구 개포동   660-10,12032,없음,없음,2,지진옥외대피소,3
0,서울특별시,강북구,상산공원,서울특별시 강북구 수유동   224-4,973,127.021805,37.638326,2,지진옥외대피소,3
0,서울특별시,종로구,중앙고등학교,서울특별시 종로구 계동   1-0,11000,126.987035,37.584897,2,지진옥외대피소,3
0,서울특별시,관악구,신관중학교 운동장,서울특별시 관악구 신림동   87-81,3608,126.934573,37.480282,2,지진옥외대피소,3
0,서울특별시,구로구,개명초등학교운동장,서울특별시 구로구 개봉동   314-165,714,126.850698,37.483005,2,지진옥외대피소,3
0,서울특별시,서초구,세화여자고등학교,서울특별시 서초구 반포동   753,16500,126.991801,37.501613,2,지진옥외대피소,3
0,서울특별시,도봉구,새동네어린이공원,서울특별시 도봉구 도봉동   289-5,1289,127.043216,37.688949,2,지진옥외대피소,3
0,서울특별시,강동구,천일초등학교운동장,서울특별시 강동구 천호동   217-70,2980,127.13332,37.544051,2,지진옥외대피소,3
0,서울특별시,송파구,서울중대초등학교,서울특별시 송파구  송파대로36길 8  (송파동),8711,127.11371,37.500104,1,지진실내구호소,3
0,서울특별시,광진구,동의초등학교 운동장 ,서울특별시 광진구 구의동   4-5,2100,127.09879,37.553542,2,지진옥외대피소,3
0,서울특별시,성북구,개운중학교,서울특별시 성북구  북악산로 935  (돈암동),13029,127.02485,37.594604,1,지진실내구호소,3
0,서울특별시,강서구,개화초등학교운동장,서울특별시 강서구 방화제1동 501,1650,126.804433,37.573494,2,지진옥외대피소,3
0,서울특별시,마포구,합정동보호수 정자마당,서울특별시 마포구 합정동   450-6,13224,126.903347,37.551635,2,지진옥외대피소,3
0,서울특별시,은평구,응암공원,서울특별시 은평구 응암동   85-41,992,126.923566,37.601714,2,지진옥외대피소,3
0,서울특별시,금천구,문교초등학교,서울특별시 금천구  독산로54길 102  (독산동),500,126.908684,37.466393,1,지진실내구호소,3
0,서울특별시,양천구,한두어린이공원,서울특별시 양천구 목동   611-1,986,126.866873,37.548683,2,지진옥외대피소,3
0,서울특별시,동대문구,경희여자고등학교,서울특별시 동대문구 회기동   1-5,2350,127.051131,37.594822,2,지진옥외대피소,3
0,서울특별시,마포구,경성고등학교,서울특별시 마포구 연남동 111,629,126.918785,37.56325,1,지진실내구호소,3
0,서울특별시,용산구,후암동 성당 공터,서울특별시 용산구 후암동   38-3,2850,126.97826,37.551976,2,지진옥외대피소,3
0,서울특별시,송파구,아주중학교 운동장,서울특별시 송파구 잠실동   115,19179,127.076029,37.505121,2,지진옥외대피소,3
1,서울특별시,양천구,달마을근린공원,서울특별시 양천구 목동   904-5,35214,126.869084,37.542771,2,지진옥외대피소,3
1,서울특별시,강서구,방화중학교 운동장,서울특별시 강서구 방화동   636-1,7950,126.806867,37.565116,2,지진옥외대피소,3
1,서울특별시,동대문구,청량초등학교,서울특별시 동대문구 회기동   1-1,3000,127.055356,37.592063,2,지진옥외대피소,3
1,서울특별시,은평구,연은초등학교 운동장,서울특별시 은평구 응암동   242-424,10568,126.925128,37.590425,2,지진옥외대피소,3
1,서울특별시,관악구,해태어린이공원,서울특별시 관악구 신림동   103-141,1359,126.9406,37.472501,2,지진옥외대피소,3
1,서울특별시,마포구,서울중동초등학교,서울특별시 마포구  월드컵북로 152  (성산동),782,126.911345,37.566644,1,지진실내구호소,3
1,서울특별시,용산구,보성여고 운동장,서울특별시 용산구 용산동2가   1-1123,819,126.984529,37.542749,2,지진옥외대피소,3
1,서울특별시,광진구,용곡중학교 운동장 ,서울특별시 광진구 중곡동   176-77,1243,127.08896,35.566171,2,지진옥외대피소,3
1,서울특별시,도봉구,해태어린이공원,서울특별시 도봉구 도봉동   614-37,962,127.04119,37.672003,2,지진옥외대피소,3
1,서울특별시,종로구,대동세무고등학교,서울특별시 종로구 계동   35-0,2000,126.987303,37.58192,2,지진옥외대피소,3
1,서울특별시,마포구,옹달샘어린이공원,서울특별시 마포구 망원동   408-3,1134,126.902101,37.555075,2,지진옥외대피소,3
1,서울특별시,구로구,서울매봉초등학교운동장,서울특별시 구로구 개봉동   3,1650,126.844575,37.504402,2,지진옥외대피소,3
1,서울특별시,강북구,솔밭근린공원,서울특별시 강북구 우이동   80,34955,127.011675,37.652864,2,지진옥외대피소,3
1,서울특별시,용산구,신용산초등학교,서울특별시 용산구  이촌로 255  (이촌동),380,126.975897,37.520011,1,지진실내구호소,3
1,서울특별시,관악구,국지어린이공원,서울특별시 관악구 봉천동   635-429,1650,126.94067,37.490039,2,지진옥외대피소,3
1,서울특별시,강남구,신구초등학교,서울특별시 강남구  압구정로18길 28  (신사동),1663,127.023938,37.523355,1,지진실내구호소,3
1,서울특별시,성북구,안암초등학교,서울특별시 성북구  인촌로7가길 39  (안암동2가),1021,127.022671,37.587227,1,지진실내구호소,3
1,서울특별시,강남구,학여울근린공원,서울특별시 강남구 개포동   183-1,12506,없음,없음,2,지진옥외대피소,3
1,서울특별시,송파구,잠신고등학교 운동장,서울특별시 송파구 잠실동   22-2,14679,127.088987,37.515116,2,지진옥외대피소,3
1,서울특별시,금천구,가산중학교,서울특별시 금천구  시흥대로115길 48  (독산동),500,126.894362,37.468378,1,지진실내구호소,3
2,서울특별시,용산구,용산2가동 마을마당(공원),서울특별시 용산구 용산동2가   5-1647,1156,126.988838,37.543593,2,지진옥외대피소,3
2,서울특별시,광진구,구의초등학교 운동장,서울특별시 광진구 화양동   303-9,2133,127.078745,37.543092,2,지진옥외대피소,3
2,서울특별시,서대문구,홍연초등학교 체육관,서울특별시 서대문구  백련사길 55  (홍은동),560,126.931055,37.581708,1,지진실내구호소,3
2,서울특별시,은평구,서울응암초등학교 운동장 ,서울특별시 은평구 응암동   산7-40,2000,126.921598,37.588683,2,지진옥외대피소,3
2,서울특별시,마포구,망원새싹어린이공원,서울특별시 마포구 망원동   509-1,555,126.898488,37.559183,2,지진옥외대피소,3
2,서울특별시,관악구,서울은천초등학교 운동장,서울특별시 관악구 봉천동   622-1,1921,126.942865,37.486884,2,지진옥외대피소,3
2,서울특별시,송파구,신천중학교 운동장,서울특별시 송파구 잠실동   19-4,4819,127.078469,37.515996,2,지진옥외대피소,3
2,서울특별시,동대문구,삼육초등학교,서울특별시 동대문구 회기동   102-48,2200,127.047812,37.58915,2,지진옥외대피소,3
2,서울특별시,금천구,독산초등학교,서울특별시 금천구  시흥대로104길 31  (독산동),500,126.90006,37.46523,1,지진실내구호소,3
2,서울특별시,강남구,신사문화센터,서울특별시 강남구  압구정로 128  (신사동),1722,127.022793,37.52398,1,지진실내구호소,3
2,서울특별시,강남구,개일초등학교 운동장,서울특별시 강남구 개포동   174-0,6600,없음,없음,2,지진옥외대피소,3
2,서울특별시,노원구,선곡초등학교 운동장,서울특별시 노원구 월계동   446-0,3400,127.05777,37.618332,2,지진옥외대피소,3
2,서울특별시,강서구,방화근린공원,서울특별시 강서구 방화동   855-0,72132,126.81413,37.580907,2,지진옥외대피소,3
2,서울특별시,구로구,개봉중학교운동장,서울특별시 구로구 개봉동   24-2,783,126.842049,37.502684,2,지진옥외대피소,3
2,서울특별시,강북구,우이제일교회 공터,서울특별시 강북구 우이동   137-0,670,127.00975,37.659922,2,지진옥외대피소,3
2,서울특별시,종로구,청진공원,서울특별시 종로구 청진동   177-0,3341,126.979878,37.571361,2,지진옥외대피소,3
2,서울특별시,관악구,난곡초등학교 운동장,서울특별시 관악구 신림동   711-136,7332,126.917172,37.469373,2,지진옥외대피소,3
2,서울특별시,양천구,강서고등학교 운동장,서울특별시 양천구 목동   735-0,4562,126.866366,37.53649,2,지진옥외대피소,3
2,서울특별시,용산구,이태원초등학교,서울특별시 용산구  녹사평대로40길 19  (이태원동),1206,126.988025,37.535867,1,지진실내구호소,3
2,서울특별시,성북구,청덕초등학교,서울특별시 성북구  정릉로9라길 11  (정릉동),14436,127.00046,37.611896,1,지진실내구호소,3
3,서울특별시,종로구,운현초등학교,서울특별시 종로구 운니동   114-7,1853,126.988142,37.575716,2,지진옥외대피소,3
3,서울특별시,관악구,미림여자고등학교 운동장,서울특별시 관악구 신림동   1557-1,9263,126.932743,37.466793,2,지진옥외대피소,3
3,서울특별시,성북구,삼선중학교(운동장),서울특별시 성북구 동소문동4가   278-174,2449,127.008558,37.591631,2,지진옥외대피소,3
3,서울특별시,서대문구,홍제초등학교,서울특별시 서대문구  홍은중앙로 13  (홍은동),2691,126.944641,37.593062,1,지진실내구호소,3
3,서울특별시,용산구,용산2가동 마을휴식공간,서울특별시 용산구 용산동2가   1-1923,659,126.984404,37.545031,2,지진옥외대피소,3
3,서울특별시,노원구,한내근린공원,서울특별시 노원구 월계동   1-1,1740,127.06942,37.622104,2,지진옥외대피소,3
3,서울특별시,구로구,고척근린공원,서울특별시 구로구 개봉동   1-13,330,126.844215,37.50523,2,지진옥외대피소,3
3,서울특별시,용산구,용산구청,서울특별시 용산구  녹사평대로 150  (이태원동),8519,126.990119,37.532512,1,지진실내구호소,3
3,서울특별시,양천구,정목초등학교 운동장,서울특별시 양천구 목동   757-1,5222,126.870321,37.537058,2,지진옥외대피소,3
3,서울특별시,관악구,선봉어린이공원,서울특별시 관악구 봉천동   942-29,1021,126.939633,37.48514,2,지진옥외대피소,3
3,서울특별시,강남구,논현1문화센터,서울특별시 강남구  학동로20길 25  (논현동),437,127.028512,37.511501,1,지진실내구호소,3
3,서울특별시,송파구,정신여자고등학교 운동장,서울특별시 송파구 잠실동   50-4,16529,127.072597,37.509586,2,지진옥외대피소,3
3,서울특별시,영등포구,도림초등학교,서울특별시 영등포구  가마산로65길 22  (신길동),19408,126.907444,37.508095,1,지진실내구호소,3
3,서울특별시,구로구,서울신미림초등학교운동장,서울특별시 구로구 신도림동   398-1,2100,126.879388,37.506645,2,지진옥외대피소,3
3,서울특별시,동대문구,휘경공업고등학교,서울특별시 동대문구 휘경동   49-327,660,127.069797,37.585019,2,지진옥외대피소,3
3,서울특별시,은평구,충암초중고등학교 운동장,서울특별시 은평구 응암동   272-113,1020.42,126.92244,37.585471,2,지진옥외대피소,3
3,서울특별시,성북구,길음초등학교,서울특별시 성북구  길음로 142  (길음동),12533,127.017672,37.614036,1,지진실내구호소,3
3,서울특별시,광진구,구의중학교 운동장,서울특별시 광진구 화양동   303-18,1924,127.078745,37.543092,2,지진옥외대피소,3
3,서울특별시,강북구,우이동 교통광장,서울특별시 강북구 우이동 산99-2,1523,없음,없음,2,지진옥외대피소,3
3,서울특별시,마포구,성미산근린공원,서울특별시 마포구 성산동   산11-61,103961,126.91492,37.561245,2,지진옥외대피소,3
3,서울특별시,강남구,양전초등학교 운동장,서울특별시 강남구 개포동   183-0,7515,없음,없음,2,지진옥외대피소,3
4,서울특별시,구로구,신도림중학교운동장,서울특별시 구로구 신도림동   311-1,5913,126.88524,37.510519,2,지진옥외대피소,3
4,서울특별시,영등포구,서울영원초등학교,서울특별시 영등포구  도영로22길 31  (영등포동),11228,126.9022,37.510897,1,지진실내구호소,3
4,서울특별시,강남구,학동초등학교,서울특별시 강남구  선릉로115길 42  (논현동),100,127.039431,37.512058,1,지진실내구호소,3
4,서울특별시,관악구,중앙어린이공원,서울특별시 관악구 봉천동   890-1,976,126.948283,37.484489,2,지진옥외대피소,3
4,서울특별시,강남구,수도전기공업고등학교 운동장,서울특별시 강남구 개포동   155-0,20800,없음,없음,2,지진옥외대피소,3
4,서울특별시,송파구,서울잠신초등학교 운동장,서울특별시 송파구 잠실동   22-4,2800,127.088199,37.513974,2,지진옥외대피소,3
4,서울특별시,용산구,한남동공영주차장건물내 교육장 등,서울특별시 용산구  이태원로 224-19  (한남동),1622,126.997468,37.539158,1,지진실내구호소,3
4,서울특별시,종로구,교동초등학교,서울특별시 종로구 경운동   2-0,2068,126.9879,37.57523,2,지진옥외대피소,3
4,서울특별시,관악구,새숲어린이공원,서울특별시 관악구 신림동   539-14,990,126.913093,37.482401,2,지진옥외대피소,3
4,서울특별시,구로구,개봉초등학교운동장,서울특별시 구로구 개봉동   266-0,4300,126.858389,37.489406,2,지진옥외대피소,3
4,서울특별시,용산구,소월길 주민쉼터(공원),서울특별시 용산구 용산동2가   5-1414,1500,126.983808,37.546276,2,지진옥외대피소,3
4,서울특별시,노원구,광운전자공업고등학교 운동장,서울특별시 노원구 월계동   500-0,9540,127.055991,37.619902,2,지진옥외대피소,3
4,서울특별시,성북구,정덕초등학교(운동장),서울특별시 성북구 동소문동7가   118-1,2963,127.013831,37.597833,2,지진옥외대피소,3
4,서울특별시,마포구,외주목어린이공원,서울특별시 마포구 성산동   587-16,3408,126.907752,37.56282,2,지진옥외대피소,3
4,서울특별시,도봉구,창일중학교 운동장,서울특별시 도봉구 창동   369,9937,127.04689,37.648626,2,지진옥외대피소,3
4,서울특별시,양천구,신목중학교 운동장,서울특별시 양천구 목동   743-15,3528,126.872855,37.536861,2,지진옥외대피소,3
4,서울특별시,광진구,장안초등학교 운동장,서울특별시 광진구 군자동   365-0,1380,127.072319,37.550278,2,지진옥외대피소,3
4,서울특별시,영등포구,영등포초등학교 운동장,서울특별시 영등포구 문래동1가   35-2,1898,126.898365,37.512783,2,지진옥외대피소,3
4,서울특별시,동대문구,보림어린이공원,서울특별시 동대문구 휘경동   179-9,9900,127.061394,37.592488,2,지진옥외대피소,3
4,서울특별시,은평구,은평다목적체육관,서울특별시 은평구  진관1로 52  (진관동),2125,126.924827,37.631248,1,지진실내구호소,3
4,서울특별시,은평구,서문교회 주차장,서울특별시 은평구 응암동   577-57,1693,126.91672,37.591537,2,지진옥외대피소,3
4,서울특별시,성북구,길음중학교,서울특별시 성북구  길음로 144  (길음동),6373,127.017091,37.61442,1,지진실내구호소,3
5,서울특별시,용산구,새꿈어린이공원,서울특별시 용산구 동자동   8-1,1828,126.974352,37.552439,2,지진옥외대피소,3
5,서울특별시,노원구,신계초등학교 운동장,서울특별시 노원구 월계동   602-0,3470,127.052563,37.62992,2,지진옥외대피소,3
5,서울특별시,관악구,신봉초등학교 운동장,서울특별시 관악구 봉천동   458-0,6314,126.949023,37.485438,2,지진옥외대피소,3
5,서울특별시,강남구,논현2문화센터,서울특별시 강남구  학동로43길 17  (논현동),247,127.03705,37.517374,1,지진실내구호소,3
5,서울특별시,종로구,탑골공원,서울특별시 종로구 종로2가   38-1,19534,126.988362,37.571409,2,지진옥외대피소,3
5,서울특별시,마포구,다솜어린이공원,서울특별시 마포구 성산동   113-2,975,126.915358,37.562412,2,지진옥외대피소,3
5,서울특별시,도봉구,창동고등학교 운동장,서울특별시 도봉구 창동   694-10,1494,127.0386,37.650801,2,지진옥외대피소,3
5,서울특별시,관악구,남부어린이공원,서울특별시 관악구 신림동   483-14,989,126.920548,37.485054,2,지진옥외대피소,3
5,서울특별시,구로구,신도림초등학교운동장,서울특별시 구로구 신도림동   300-6,2666,126.88303,37.512202,2,지진옥외대피소,3
5,서울특별시,성북구,숭인초등학교,서울특별시 성북구  오패산로16길 37  (하월곡동),12685,127.038406,37.608936,1,지진실내구호소,3
5,서울특별시,은평구,은평문화예술정보학교 운동장,서울특별시 은평구 응암동   334-12,1000,126.919358,37.589518,2,지진옥외대피소,3
5,서울특별시,광진구,세종초등학교 운동장,서울특별시 광진구 군자동   98-0,2000,127.073,37.55286,2,지진옥외대피소,3
5,서울특별시,영등포구,양화중학교 운동장,서울특별시 영등포구 문래동3가   48-0,2206,126.896358,37.51953,2,지진옥외대피소,3
5,서울특별시,동대문구,휘봉초등학교,서울특별시 동대문구 휘경동   49-27,2500,127.070258,37.585887,2,지진옥외대피소,3
5,서울특별시,영등포구,영등포여자고등학교,서울특별시 영등포구  영등포로62길 13  (신길동),17821,126.915101,37.515371,1,지진실내구호소,3
5,서울특별시,구로구,오류초등학교운동장,서울특별시 구로구 오류동   15,899,126.84212,37.497806,2,지진옥외대피소,3
5,서울특별시,송파구,영동일고등학교 운동장,서울특별시 송파구 잠실동   35-1,2006,127.08977,37.509962,2,지진옥외대피소,3
5,서울특별시,용산구,서빙고초등학교,서울특별시 용산구  서빙고로51길 14  (서빙고동),1650,126.992403,37.522146,1,지진실내구호소,3
5,서울특별시,강남구,개원중학교 운동장,서울특별시 강남구 개포동   184-0,10260,없음,없음,2,지진옥외대피소,3
5,서울특별시,서대문구,명지대방목학술정보관,서울특별시 서대문구  거북골로 34  (남가좌동),4030,126.921374,37.580354,1,지진실내구호소,3
5,서울특별시,성북구,경동고등학교(운동장),서울특별시 성북구 삼선동3가   43-1,13299,127.01497,37.585744,2,지진옥외대피소,3
5,서울특별시,양천구,영도초등학교 운동장,서울특별시 양천구 목동   744-4,4849,126.871626,37.535702,2,지진옥외대피소,3
6,서울특별시,강남구,청담중학교 ,서울특별시 강남구  압구정로61길 36  (청담동),1770,127.045542,37.528518,1,지진실내구호소,3
6,서울특별시,강남구,경기여자고등학교 운동장,서울특별시 강남구 개포동   152-0,8292,없음,없음,2,지진옥외대피소,3
6,서울특별시,노원구,공릉초등학교 운동장,서울특별시 노원구 공릉동   610-1,4540,127.074624,37.619288,2,지진옥외대피소,3
6,서울특별시,관악구,관악산 난곡공원,서울특별시 관악구 신림동   685-4,9394,126.917127,37.46554,2,지진옥외대피소,3
6,서울특별시,마포구,뒤뜰어린이공원,서울특별시 마포구 성산동   588-8,530,126.909384,37.56323,2,지진옥외대피소,3
6,서울특별시,종로구,효제초등학교,서울특별시 종로구 효제동   255-4,578,127.002939,37.5728,2,지진옥외대피소,3
6,서울특별시,관악구,서원어린이공원,서울특별시 관악구 신림동   409-26,2324,126.933312,37.476775,2,지진옥외대피소,3
6,서울특별시,용산구,두텁바위공원,서울특별시 용산구 동자동   37-17,2623,126.973628,37.551186,2,지진옥외대피소,3
6,서울특별시,성북구,삼선초등학교(운동장),서울특별시 성북구 삼선동3가   30-4,4967,127.012502,37.586373,2,지진옥외대피소,3
6,서울특별시,송파구,잠일고등학교 운동장,서울특별시 송파구 잠실동   19-2,1532,127.082496,37.514409,2,지진옥외대피소,3
6,서울특별시,구로구,고척고등학교,서울특별시 구로구  중앙로15길 162  (고척동),507,126.850947,37.488094,1,지진실내구호소,3
6,서울특별시,용산구,한강중학교,서울특별시 용산구  녹사평대로 73  (서빙고동),1650,126.992345,37.523986,1,지진실내구호소,3
6,서울특별시,성북구,숭곡중학교,서울특별시 성북구  종암로 208  (하월곡동),11369,127.031133,37.607947,1,지진실내구호소,3
6,서울특별시,양천구,목2동 마을쉼터,서울특별시 양천구 목동   910-0,786,126.871569,37.545337,2,지진옥외대피소,3
6,서울특별시,구로구,신도림고등학교운동장,서울특별시 구로구 신도림동 270-2,697,126.882048,37.514242,2,지진옥외대피소,3
6,서울특별시,동대문구,휘경초등학교,서울특별시 동대문구 휘경동   302-2,1350,127.058193,37.58571,2,지진옥외대피소,3
6,서울특별시,동작구,사당종합체육관,서울특별시 동작구 사당동   산21-9,2494.6,126.969538,37.492666,1,지진실내구호소,3
6,서울특별시,도봉구,서울창림초등학교 운동장,서울특별시 도봉구 창동   411-8,11855,127.041464,37.643183,2,지진옥외대피소,3
6,서울특별시,은평구,덕산중학교 운동장,서울특별시 은평구 신사동   265-4,2644,126.904317,37.60195,2,지진옥외대피소,3
6,서울특별시,구로구,덕일전자공업고등학교  운동장,서울특별시 구로구 오류동   199-1,724,126.837291,37.490492,2,지진옥외대피소,3
6,서울특별시,광진구,용마초등학교 운동장,서울특별시 광진구 중곡동   135-1,2880,127.08424,37.558296,2,지진옥외대피소,3
6,서울특별시,서대문구,금화초등학교,서울특별시 서대문구  통일로 165  (천연동),550,126.963188,37.568651,1,지진실내구호소,3
6,서울특별시,영등포구,문래공원,서울특별시 영등포구 문래동3가   66-0,23611,126.894406,37.517668,2,지진옥외대피소,3
7,서울특별시,광진구,중마초등학교 ,서울특별시 광진구 중곡동   191-69,1337,127.079548,37.566112,2,지진옥외대피소,3
7,서울특별시,성북구,안암초등학교(운동장),서울특별시 성북구 안암동2가   93-0,4077,127.022556,37.587207,2,지진옥외대피소,3
7,서울특별시,구로구,덕의초등학교,서울특별시 구로구  고척로 213  (고척동),944,126.856733,37.506217,1,지진실내구호소,3
7,서울특별시,영등포구,안양천 영롱이 인라인 마당,서울특별시 영등포구 문래동5가   31-0,9485,126.880578,37.519182,2,지진옥외대피소,3
7,서울특별시,강남구,배밭근린공원,서울특별시 강남구 개포동   181-0,11627,없음,없음,2,지진옥외대피소,3
7,서울특별시,마포구,개나리어린이공원,서울특별시 마포구 중동   40-5,1481,126.90918,37.569919,2,지진옥외대피소,3
7,서울특별시,도봉구,서울신화초등학교 운동장,서울특별시 도봉구 창동   504-33,6892,127.041224,37.632459,2,지진옥외대피소,3
7,서울특별시,구로구,구일고등학교운동장,서울특별시 구로구 구로동   685-194,3042,126.874114,37.494683,2,지진옥외대피소,3
7,서울특별시,서대문구,연북중학교,서울특별시 서대문구  연희로36길 32  (연희동),1983.84,126.937728,37.577819,1,지진실내구호소,3
7,서울특별시,양천구,월촌중학교 운동장,서울특별시 양천구 목동   909-0,3073,126.882725,37.537562,2,지진옥외대피소,3
7,서울특별시,노원구,경기기계공업고등학교 운동장,서울특별시 노원구 하계동   78-0,12900,127.074484,37.632467,2,지진옥외대피소,3
7,서울특별시,용산구,청파어린이공원,서울특별시 용산구 서계동   226-3,8324,126.968258,37.553529,2,지진옥외대피소,3
7,서울특별시,종로구,낙산공원,서울특별시 종로구 동숭동   산2-10,152443,127.006408,37.580771,2,지진옥외대피소,3
7,서울특별시,동대문구,청량초등학교,서울특별시 동대문구  회기로25길 31  (회기동),3500,127.055819,37.591984,1,지진실내구호소,3
7,서울특별시,관악구,미성초등학교 운동장,서울특별시 관악구 신림동   768-23,2500,126.913295,37.477683,2,지진옥외대피소,3
7,서울특별시,송파구,서울잠전초등학교 운동장,서울특별시 송파구 잠실동   229,3992,127.084205,37.506774,2,지진옥외대피소,3
7,서울특별시,용산구,보광동주민센터,서울특별시 용산구  장문로 95  (보광동),731,127.000112,37.526266,1,지진실내구호소,3
7,서울특별시,관악구,신성초등학교 운동장,서울특별시 관악구 신림동   117-4,7337,126.936633,37.471587,2,지진옥외대피소,3
7,서울특별시,강남구,경기고등학교,서울특별시 강남구  영동대로 643  (삼성동),614,127.056003,37.517425,1,지진실내구호소,3
7,서울특별시,구로구,오남중학교,서울특별시 구로구 오류동   산39-40,0,126.835131,37.489134,2,지진옥외대피소,3
7,서울특별시,은평구,서울서신초등학교 운동장,서울특별시 은평구 신사동   194-0,3358,126.907547,37.592482,2,지진옥외대피소,3
7,서울특별시,관악구,구암초등학교,서울특별시 관악구 봉천동   823-1,513,126.947303,37.48989,1,지진실내구호소,3
7,서울특별시,동대문구,전동중학교,서울특별시 동대문구 휘경동   49-295,1500,127.071144,37.585243,2,지진옥외대피소,3
8,서울특별시,용산구,청파초등학교 운동장,서울특별시 용산구 청파동2가   1-42,16722,126.964289,37.547632,2,지진옥외대피소,3
8,서울특별시,강남구,개포동근린공원,서울특별시 강남구 개포동   182-1,9706,없음,없음,2,지진옥외대피소,3
8,서울특별시,양천구,파리공원,서울특별시 양천구 목동   906-0,29619,126.877139,37.534436,2,지진옥외대피소,3
8,서울특별시,노원구,혜성여자고등학교 운동장,서울특별시 노원구 하계동   산16-38,8880,127.073227,37.641037,2,지진옥외대피소,3
8,서울특별시,영등포구,문래중학교 운동장,서울특별시 영등포구 문래동6가   44-0,775,126.884184,37.520271,2,지진옥외대피소,3
8,서울특별시,강남구,봉은초등학교 ,서울특별시 강남구  학동로 610  (삼성동),2362,127.060791,37.520101,1,지진실내구호소,3
8,서울특별시,서대문구,인왕중학교 강당,서울특별시 서대문구  세검정로4길 69  (홍제동),100,126.952043,37.59278,1,지진실내구호소,3
8,서울특별시,광진구,중광초등학교 운동장 ,서울특별시 광진구 중곡동   220-22,330,127.082354,37.565358,2,지진옥외대피소,3
8,서울특별시,구로구,오류고등학교운동장,서울특별시 구로구 궁동   110-1,998,126.828094,37.500035,2,지진옥외대피소,3
8,서울특별시,관악구,합실어린이공원,서울특별시 관악구 신림동   321-5,1297,126.930236,37.461986,2,지진옥외대피소,3
8,서울특별시,은평구,서울상신초등학교 운동장 ,서울특별시 은평구 신사동   230-11,2528,126.904724,37.597845,2,지진옥외대피소,3
8,서울특별시,동대문구,휘봉고등학교,서울특별시 동대문구 휘경동   43-138,2150,127.068116,37.586544,2,지진옥외대피소,3
8,서울특별시,마포구,물빛문화공원,서울특별시 마포구 상암동   1608,5826,126.893112,37.580055,2,지진옥외대피소,3
8,서울특별시,송파구,서울버들초등학교 운동장,서울특별시 송파구 잠실동   35-6,3771,127.089089,37.510267,2,지진옥외대피소,3
8,서울특별시,관악구,당곡중학교,서울특별시 관악구 봉천동   682-0,856,126.933153,37.4919,1,지진실내구호소,3
8,서울특별시,동대문구,휘경1동주민센터,서울특별시 동대문구  외대역동로6길 3  (휘경동),171,127.065763,37.59293,1,지진실내구호소,3
8,서울특별시,성북구,용문고등학교(운동장),서울특별시 성북구 안암동2가   96-1,7385,127.024668,37.588021,2,지진옥외대피소,3
8,서울특별시,구로구,매봉초등학교,서울특별시 구로구  고척로21길 55  (개봉동),604,126.844575,37.504402,1,지진실내구호소,3
8,서울특별시,중구,회현체육센터,서울특별시 중구  퇴계로12길 78  (회현동1가),701.66,126.981656,37.55623,1,지진실내구호소,3
8,서울특별시,구로구,서울구일초등학교운동장,서울특별시 구로구 구로동   685-221,387,126.872969,37.492781,2,지진옥외대피소,3
8,서울특별시,종로구,서울사대부설여자중학교,서울특별시 종로구 동숭동   199-1,1920,127.003869,37.577264,2,지진옥외대피소,3
8,서울특별시,관악구,남부초등학교 운동장,서울특별시 관악구 신림동   467,3337,126.922099,37.484888,2,지진옥외대피소,3
8,서울특별시,도봉구,서울자운초등학교 운동장,서울특별시 도봉구 창동   181-19,10224,127.046564,37.657611,2,지진옥외대피소,3
9,서울특별시,서대문구,안산초등학교,서울특별시 서대문구  통일로 321  (홍제동),1013,126.944031,37.585068,1,지진실내구호소,3
9,서울특별시,마포구,가온문화공원,서울특별시 마포구 상암동   1594,4630,126.887629,37.581753,2,지진옥외대피소,3
9,서울특별시,강남구,개포고등학교 운동장,서울특별시 강남구 개포동   173-0,8882,없음,없음,2,지진옥외대피소,3
9,서울특별시,구로구,영서초등학교운동장,서울특별시 구로구 구로동   165-1,7232,126.895123,37.488485,2,지진옥외대피소,3
9,서울특별시,도봉구,자운고등학교 운동장,서울특별시 도봉구 창동   1,13369,127.050673,37.659092,2,지진옥외대피소,3
9,서울특별시,동대문구,휘경공업고등학교,서울특별시 동대문구  겸재로 21  (휘경동),3500,127.069537,37.585333,1,지진실내구호소,3
9,서울특별시,은평구,서울증산초등학교 운동장,서울특별시 은평구 증산동   212-0,15734,126.904172,37.582616,2,지진옥외대피소,3
9,서울특별시,종로구,올림픽기념국민생활관,서울특별시 종로구 혜화동   1-21,1152,126.998772,37.590648,2,지진옥외대피소,3
9,서울특별시,광진구,용곡초등학교 운동장 ,서울특별시 광진구 중곡동   176-1,2184,127.088728,37.566962,2,지진옥외대피소,3
9,서울특별시,영등포구,안양천 영롱이 억새 1~3구장,서울특별시 영등포구 문래동6가   52-0,23850,126.880527,37.521161,2,지진옥외대피소,3
9,서울특별시,구로구,경인중학교,서울특별시 구로구  경인로 301  (개봉동),870,126.854658,37.498382,1,지진실내구호소,3
9,서울특별시,동대문구,휘경여자고등학교,서울특별시 동대문구 휘경동   43-7,1750,127.067424,37.583241,2,지진옥외대피소,3
9,서울특별시,구로구,우신고등학교운동장,서울특별시 구로구 궁동   230-0,1255,126.827614,37.494498,2,지진옥외대피소,3
9,서울특별시,관악구,남서울중학교,서울특별시 관악구 신림동   1690-3,863,126.921473,37.481892,1,지진실내구호소,3
9,서울특별시,강남구,대치1문화센터,서울특별시 강남구  남부순환로391길 19  (대치동),459,127.056771,37.493246,1,지진실내구호소,3
9,서울특별시,관악구,난향초등학교 운동장,서울특별시 관악구 신림동   672,3533,126.917891,37.462102,2,지진옥외대피소,3
9,서울특별시,종로구,무악동주민센터,서울특별시 종로구  통일로16길 8-3  (무악동 인왕산아이파크아파트),1200,126.957367,37.576246,1,지진실내구호소,3
9,서울특별시,양천구,돌다리어린이공원,서울특별시 양천구 신월동   100-1,925,126.833068,37.52787,2,지진옥외대피소,3
9,서울특별시,송파구,서울신천초등학교 운동장,서울특별시 송파구 잠실동   27-5,5100,127.095188,37.513629,2,지진옥외대피소,3
9,서울특별시,용산구,청파선린공원,서울특별시 용산구 청파동3가   118-56,1750,126.966296,37.543584,2,지진옥외대피소,3
9,서울특별시,노원구,중현어린이공원,서울특별시 노원구 하계동   272-1,3780,127.065848,37.631782,2,지진옥외대피소,3
9,서울특별시,관악구,사당초등학교 운동장,서울특별시 관악구 남현동   1080-1,7717,126.974544,37.474319,2,지진옥외대피소,3
9,서울특별시,성북구,동신초등학교(운동장),서울특별시 성북구 보문동3가   228,13209,127.016962,37.582582,2,지진옥외대피소,3
10,서울특별시,강남구,대명중학교,서울특별시 강남구  역삼로87길 26  (대치동),661,127.060388,37.506225,1,지진실내구호소,3
10,서울특별시,관악구,중앙분수대 및 중앙도로,서울특별시 관악구 신림동   1735-0,3670,126.920544,37.459143,2,지진옥외대피소,3
10,서울특별시,관악구,신관중학교,서울특별시 관악구 신림동   산168-10,935,126.933705,37.480179,1,지진실내구호소,3
10,서울특별시,서대문구,홍제3동주민센터,서울특별시 서대문구  세검정로4길 32  (홍제동),100,126.949763,37.593763,1,지진실내구호소,3
10,서울특별시,은평구,수색초등학교 운동장,서울특별시 은평구 수색동   129-0,2940,126.895392,37.584964,2,지진옥외대피소,3
10,서울특별시,영등포구,서울영문초등학교 운동장,서울특별시 영등포구 문래동6가   13-0,5808,126.88775,37.519731,2,지진옥외대피소,3
10,서울특별시,광진구,대원외국어고등학교 운동장 ,서울특별시 광진구 중곡동   176-124,11586,127.0895,37.56317,2,지진옥외대피소,3
10,서울특별시,구로구,구로구시설관리공단운동장,서울특별시 구로구 구로동   741-27,3000,126.8865,37.48976,2,지진옥외대피소,3
10,서울특별시,노원구,하계어린이공원,서울특별시 노원구 하계동   273-3,1150,127.069304,37.632203,2,지진옥외대피소,3
10,서울특별시,구로구,개명초등학교,서울특별시 구로구  개봉로1다길 16-9  (개봉동),364,126.850698,37.483005,1,지진실내구호소,3
10,서울특별시,동대문구,이문초등학교,서울특별시 동대문구 이문동   256-30,2850,127.064107,37.602013,2,지진옥외대피소,3
10,서울특별시,관악구,군인아파트 어린이공원,서울특별시 관악구 남현동   602-143,926,126.978962,37.471858,2,지진옥외대피소,3
10,서울특별시,강남구,일원초등학교 운동장,서울특별시 강남구 일원동   691-0,6881,없음,없음,2,지진옥외대피소,3
10,서울특별시,도봉구,서울창원초등학교 운동장,서울특별시 도봉구 창동   308,6874,127.040591,37.652357,2,지진옥외대피소,3
10,서울특별시,용산구,해님공원,서울특별시 용산구 원효로1가   119-2,1255,126.970023,37.539327,2,지진옥외대피소,3
10,서울특별시,송파구,서울아주초등학교 운동장,서울특별시 송파구 잠실동   115,7595,127.076029,37.505121,2,지진옥외대피소,3
10,서울특별시,동대문구,휘경중학교,서울특별시 동대문구  망우로18나길 20  (휘경동),3500,127.061751,37.587084,1,지진실내구호소,3
10,서울특별시,종로구,재동초등학교,서울특별시 종로구  북촌로4길 7  (가회동),202,126.985568,37.57983,1,지진실내구호소,3
10,서울특별시,성북구,고려대학사범대학부속고등학교(운동장),서울특별시 성북구 정릉동   산1-2,8573,126.998525,37.609946,2,지진옥외대피소,3
10,서울특별시,마포구,DMC문화공원,서울특별시 마포구 상암동   1611,3828,126.892505,37.577981,2,지진옥외대피소,3
10,서울특별시,양천구,신대어린이공원,서울특별시 양천구 신월동   119-0,1003,126.832284,37.534156,2,지진옥외대피소,3
10,서울특별시,구로구,서울정진학교운동장,서울특별시 구로구 궁동   242-0,2485,126.822419,37.497909,2,지진옥외대피소,3
10,서울특별시,종로구,명륜공원,서울특별시 종로구 명륜1가   23-9,1149,126.998236,37.58833,2,지진옥외대피소,3
11,서울특별시,동대문구,휘봉고등학교,서울특별시 동대문구  한천로 290  (휘경동),3500,127.06892,37.58638,1,지진실내구호소,3
11,서울특별시,용산구,남정초등학교 운동장,서울특별시 용산구 원효로2가   54-1,1000,126.964978,37.536355,2,지진옥외대피소,3
11,서울특별시,송파구,서울잠일초등학교 운동장,서울특별시 송파구 잠실동   19-2,2146,127.082496,37.514409,2,지진옥외대피소,3
11,서울특별시,서초구,서일중학교,서울특별시 서초구 서초동   1313-0,4301,127.022314,37.499087,1,지진실내구호소,3
11,서울특별시,마포구,하늘초등학교,서울특별시 마포구 상암동   594,1450,126.880565,37.58546,2,지진옥외대피소,3
11,서울특별시,양천구,신월1동휴게공간,서울특별시 양천구 신월동   129-6,1993,126.832284,37.534156,2,지진옥외대피소,3
11,서울특별시,은평구,진관중학교 운동장,서울특별시 은평구 진관동   16-0,1960,126.925375,37.643957,2,지진옥외대피소,3
11,서울특별시,성북구,북악중학교(운동장),서울특별시 성북구 정릉동   640-3,1410,127.002058,37.606542,2,지진옥외대피소,3
11,서울특별시,관악구,상록어린이공원,서울특별시 관악구 남현동   602-196,1557,126.980309,37.473006,2,지진옥외대피소,3
11,서울특별시,강남구,구룡초등학교 운동장,서울특별시 강남구 개포동   655-0,12874,127.051494,37.481084,2,지진옥외대피소,3
11,서울특별시,성동구,금호고등학교 운동장,서울특별시 성동구 금호동1가   339-0,1500,127.023621,37.553046,2,지진옥외대피소,3
11,서울특별시,구로구,개웅중학교,서울특별시 구로구  개봉로11길 81  (개봉동),524,126.851251,37.487542,1,지진실내구호소,3
11,서울특별시,관악구,문성어린이공원,서울특별시 관악구 신림동   1661-15,987,126.902996,37.481951,2,지진옥외대피소,3
11,서울특별시,구로구,개웅초등학교운동장,서울특별시 구로구 개봉동   산53-25,1370,126.850063,37.488519,2,지진옥외대피소,3
11,서울특별시,노원구,덕암초등학교 운동장,서울특별시 노원구 상계동   1274-0,1790,127.080936,37.666611,2,지진옥외대피소,3
11,서울특별시,종로구,종로1234가동 주민센터,서울특별시 종로구  종로17길 8  (종로2가),355,126.988986,37.570652,1,지진실내구호소,3
11,서울특별시,영등포구,양남어린이공원,서울특별시 영등포구 양평동1가   205-0,1467,126.888181,37.523258,2,지진옥외대피소,3
11,서울특별시,중랑구,면목5동 집하장 녹지대,서울특별시 중랑구 면목동   734-2,970,127.079,37.579834,2,지진옥외대피소,3
11,서울특별시,구로구,세종과학고등학교,서울특별시 구로구 궁동   232-0,420,126.827111,37.497305,2,지진옥외대피소,3
11,서울특별시,강남구,대치4문화센터,서울특별시 강남구  도곡로77길 23  (대치동),555,127.057884,37.499674,1,지진실내구호소,3
11,서울특별시,서대문구,홍은중학교 체육관,서울특별시 서대문구  세검정로 105  (홍제동),586,126.949603,37.59762,1,지진실내구호소,3
11,서울특별시,종로구,와룡공원,서울특별시 종로구 명륜3가   산2-14,204369,126.998772,37.59086,2,지진옥외대피소,3
11,서울특별시,도봉구,서울가인초등학교 운동장,서울특별시 도봉구 창동   224-20,9751,127.04327,37.659896,2,지진옥외대피소,3
12,서울특별시,구로구,온수초등학교,서울특별시 구로구 온수동   9-34,0,126.825969,37.494123,2,지진옥외대피소,3
12,서울특별시,관악구,예촌어린이공원,서울특별시 관악구 남현동   1083-1,1509,126.976703,37.47456,2,지진옥외대피소,3
12,서울특별시,성동구,금호초등학교 운동장,서울특별시 성동구 금호동2가   511,2178,127.020148,37.55257,2,지진옥외대피소,3
12,서울특별시,중랑구,사가정공원,서울특별시 중랑구 면목동   산50-15,109653,127.095242,37.580266,2,지진옥외대피소,3
12,서울특별시,종로구,창신초등학교,서울특별시 종로구 창신동   128-32,4000,127.015323,37.577158,2,지진옥외대피소,3
12,서울특별시,강남구,도곡초등학교,서울특별시 강남구  선릉로64길 33  (대치동),649,127.054468,37.499549,1,지진실내구호소,3
12,서울특별시,성북구,대일외국어고등학교(운동장),서울특별시 성북구 정릉동   산16-36,6166,127.013632,37.613602,2,지진옥외대피소,3
12,서울특별시,송파구,송파중학교,서울특별시 송파구 가락동   139-0,13735,127.129337,37.496273,1,지진실내구호소,3
12,서울특별시,은평구,서울은빛초등학교 운동장 ,서울특별시 은평구 진관동   421-1,1512,126.919117,37.642629,2,지진옥외대피소,3
12,서울특별시,양천구,신월어린이공원,서울특별시 양천구 신월동   240-0,1148,126.832284,37.534156,2,지진옥외대피소,3
12,서울특별시,양천구,모세미어린이공원,서울특별시 양천구 목동   772-1,988,126.868665,37.535213,2,지진옥외대피소,3
12,서울특별시,동대문구,휘봉초등학교,서울특별시 동대문구  장안벚꽃로 309  (휘경동),3500,127.070152,37.586323,1,지진실내구호소,3
12,서울특별시,종로구,종로56가동주민센터,서울특별시 종로구  종로35가길 19  (효제동),1528,127.004871,37.572279,1,지진실내구호소,3
12,서울특별시,송파구,잠신중학교 운동장,서울특별시 송파구 잠실동   22-1,6770,127.087804,37.515752,2,지진옥외대피소,3
12,서울특별시,관악구,신우초등학교 운동장,서울특별시 관악구 신림동   315,4250,126.932425,37.462739,2,지진옥외대피소,3
12,서울특별시,강남구,국립국악고등학교 운동장,서울특별시 강남구 개포동   1272-0,1392,127.051341,34.476382,2,지진옥외대피소,3
12,서울특별시,용산구,문화원 정자마당,서울특별시 용산구 원효로2가   87-2,450,126.952013,37.533409,2,지진옥외대피소,3
12,서울특별시,도봉구,서울오봉초등학교 운동장,서울특별시 도봉구 도봉동   608-22,10224,127.040347,37.671677,2,지진옥외대피소,3
12,서울특별시,노원구,상계중학교 운동장,서울특별시 노원구 상계동   195-5,7190,127.069071,37.652091,2,지진옥외대피소,3
12,서울특별시,강서구,수명공원,서울특별시 강서구 화곡동   1044-31,985,126.834337,37.54086,2,지진옥외대피소,3
12,서울특별시,서대문구,인왕초등학교 체육관,서울특별시 서대문구  세무서길 33-9  (홍제동),476.77,126.94521,37.590504,1,지진실내구호소,3
12,서울특별시,구로구,구일중학교,서울특별시 구로구  구일로 90-133  (구로동),973,126.873722,37.4951,1,지진실내구호소,3
12,서울특별시,영등포구,관악고등학교 운동장,서울특별시 영등포구 양평동2가   23-2,3023,126.883243,37.521524,2,지진옥외대피소,3
13,서울특별시,강남구,개포은행나무공원,서울특별시 강남구 개포동   1220-0,1642,127.049252,37.476088,2,지진옥외대피소,3
13,서울특별시,성북구,청덕초등학교장(운동장),서울특별시 성북구 정릉동   847-0,2526,127.000602,37.611715,2,지진옥외대피소,3
13,서울특별시,중랑구,용마폭포공원,서울특별시 중랑구 면목동   산1-4,7140,127.089238,37.575063,2,지진옥외대피소,3
13,서울특별시,은평구,구산초등학교,서울특별시 은평구  서오릉로15길 16  (구산동),1726,126.909499,37.612527,1,지진실내구호소,3
13,서울특별시,강서구,두레공원,서울특별시 강서구 화곡동   792-9,986,126.859365,37.531151,2,지진옥외대피소,3
13,서울특별시,구로구,유한공업고등학교운동장,서울특별시 구로구 항동   1-7,858,126.823809,37.488094,2,지진옥외대피소,3
13,서울특별시,송파구,서울문현초등학교,서울특별시 송파구 장지동   838-3,5692,127.128,37.480588,1,지진실내구호소,3
13,서울특별시,동대문구,휘경2동주민센터,서울특별시 동대문구  한천로 329  (휘경동),157,127.06858,37.590134,1,지진실내구호소,3
13,서울특별시,구로구,구일초등학교,서울특별시 구로구  구일로 68  (구로동),387,126.872936,37.492747,1,지진실내구호소,3
13,서울특별시,송파구,정신여자중학교 운동장,서울특별시 송파구 잠실동   50-4,16529,127.072597,37.509586,2,지진옥외대피소,3
13,서울특별시,강남구,역삼1문화센터,서울특별시 강남구  역삼로7길 16  (역삼동),958,127.033266,37.495395,1,지진실내구호소,3
13,서울특별시,은평구,서울신도초등학교 운동장,서울특별시 은평구 진관동   108-0,1583,126.929136,37.632728,2,지진옥외대피소,3
13,서울특별시,영등포구,서울당중초등학교 운동장,서울특별시 영등포구 양평동3가   42-0,3375,126.890153,37.52625,2,지진옥외대피소,3
13,서울특별시,관악구,광신고등학교 운동장,서울특별시 관악구 신림동   328-0,8625,126.925949,37.464597,2,지진옥외대피소,3
13,서울특별시,양천구,목마공원,서울특별시 양천구 목동   910,21816,126.885691,37.538218,2,지진옥외대피소,3
13,서울특별시,노원구,서울상계초등학교 운동장,서울특별시 노원구 상계동   402-1,1830,127.066125,37.659063,2,지진옥외대피소,3
13,서울특별시,서초구,정문어린이공원,서울특별시 서초구 방배동   985-3,993,없음,없음,2,지진옥외대피소,3
13,서울특별시,용산구,산천동 마을마당,서울특별시 용산구 산천동   200,555,126.952996,37.535491,2,지진옥외대피소,3
13,서울특별시,종로구,올림픽기념국민생활관,서울특별시 종로구  성균관로 91  (혜화동),1152,126.9988,37.590339,1,지진실내구호소,3
13,서울특별시,성동구,옥수초등학교 운동장,서울특별시 성동구 금호동4가   440-12,1255,127.021923,37.549585,2,지진옥외대피소,3
13,서울특별시,도봉구,북서울중학교 운동장,서울특별시 도봉구 도봉동   585,6382,127.042912,37.681156,2,지진옥외대피소,3
13,서울특별시,종로구,지봉골공원,서울특별시 종로구 창신동   산6-25,2508,127.013028,37.581291,2,지진옥외대피소,3
13,서울특별시,양천구,신강초등학교 운동장,서울특별시 양천구 신월동   448-5,4743,126.841663,37.525959,2,지진옥외대피소,3
14,서울특별시,용산구,선린중학교 운동장 ,서울특별시 용산구 원효로3가   131-2,18425,126.966341,37.542734,2,지진옥외대피소,3
14,서울특별시,은평구,대은초등학교,서울특별시 은평구  통일로69길 12-15  (대조동),1000,126.925865,37.612166,1,지진실내구호소,3
14,서울특별시,종로구,명신초등학교,서울특별시 종로구 창신동   7-40,2520,127.013953,37.58128,2,지진옥외대피소,3
14,서울특별시,양천구,신남중학교 운동장,서울특별시 양천구 신월동   609-7,4686,126.847863,37.520554,2,지진옥외대피소,3
14,서울특별시,중랑구,면목천로 녹지대(공원),서울특별시 중랑구 면목동   1508-10,8536,127.083339,37.53897,2,지진옥외대피소,3
14,서울특별시,동대문구,이문1동주민센터,서울특별시 동대문구  외대역동로 114-1  (이문동),150,127.065478,37.597835,1,지진실내구호소,3
14,서울특별시,관악구,원신초등학교 운동장,서울특별시 관악구 신림동   336-0,1564,126.927444,37.466935,2,지진옥외대피소,3
14,서울특별시,강남구,대명중학교 운동장,서울특별시 강남구 대치동   952-0,5400,없음,없음,2,지진옥외대피소,3
14,서울특별시,강서구,볏골공원,서울특별시 강서구 화곡동   98-99,4219,126.844213,37.541348,2,지진옥외대피소,3
14,서울특별시,강남구,도성초등학교,서울특별시 강남구  역삼로 313  (역삼동),1520,127.049183,37.500908,1,지진실내구호소,3
14,서울특별시,도봉구,도봉중학교 운동장,서울특별시 도봉구 도봉동   622-40,1986,127.045668,37.670438,2,지진옥외대피소,3
14,서울특별시,서초구,새말어린이공원,서울특별시 서초구 방배동   794-16,984,126.988568,37.493332,2,지진옥외대피소,3
14,서울특별시,종로구,서울과학고,서울특별시 종로구  혜화로 63  (명륜1가),1166,126.998388,37.591826,1,지진실내구호소,3
14,서울특별시,영등포구,선유중학교 운동장,서울특별시 영등포구 양평동3가   82-0,4358,126.894315,37.532945,2,지진옥외대피소,3
14,서울특별시,성북구,정릉초등학교(운동장),서울특별시 성북구 정릉동   798-0,2800,127.005294,37.619436,2,지진옥외대피소,3
14,서울특별시,노원구,갈울근린공원,서울특별시 노원구 상계동   644-0,3200,127.061189,37.66686,2,지진옥외대피소,3
14,서울특별시,구로구,성베드로학교운동장,서울특별시 구로구 항동   1-1,327,126.825981,37.487446,2,지진옥외대피소,3
14,서울특별시,서대문구,감리교신학대 운동장,서울특별시 서대문구 냉천동   31,846,126.96212,37.567475,2,지진옥외대피소,3
14,서울특별시,양천구,나말어린이공원,서울특별시 양천구 목동   724-1,1002,126.864468,37.538687,2,지진옥외대피소,3
14,서울특별시,성동구,금옥초등학교 운동장,서울특별시 성동구 금호동4가   1254-0,2072,127.017622,37.546959,2,지진옥외대피소,3
14,서울특별시,송파구,오륜중학교,서울특별시 송파구 방이동   89-7,2967,127.138909,37.516352,1,지진실내구호소,3
14,서울특별시,송파구,서울잠실초등학교 운동장,서울특별시 송파구 신천동   20-2,2025,127.11127,37.520101,2,지진옥외대피소,3
14,서울특별시,구로구,구로남초등학교,서울특별시 구로구  구로중앙로27나길 21  (구로동),12973,126.890841,37.484849,1,지진실내구호소,3
15,서울특별시,영등포구,한강미디어고등학교 운동장,서울특별시 영등포구 양평동4가   315-1,2244,126.89743,37.539089,2,지진옥외대피소,3
15,서울특별시,구로구,영서중학교,서울특별시 구로구  도림로20길 35  (구로동),9041,126.894735,37.488994,1,지진실내구호소,3
15,서울특별시,금천구,골말공원,서울특별시 금천구 가산동   28-2,1485,126.88448,37.482862,2,지진옥외대피소,3
15,서울특별시,종로구,서울과학고,서울특별시 종로구  혜화로 63  (명륜1가),610,126.998367,37.591834,1,지진실내구호소,3
15,서울특별시,서초구,방배1동 공영주차장,서울특별시 서초구 방배동   328-1,5724,없음,없음,2,지진옥외대피소,3
15,서울특별시,도봉구,누원고등학교 운동장,서울특별시 도봉구 도봉동   646,3378,127.050468,37.685288,2,지진옥외대피소,3
15,서울특별시,송파구,잠실중학교 운동장,서울특별시 송파구 신천동   7-1,12369,127.099333,37.517362,2,지진옥외대피소,3
15,서울특별시,관악구,난우초등학교 운동장,서울특별시 관악구 신림동   589-1,5367,126.917696,37.476578,2,지진옥외대피소,3
15,서울특별시,용산구,도원어린이공원,서울특별시 용산구 도원동   21,1527,126.954751,37.537156,2,지진옥외대피소,3
15,서울특별시,성동구,옥정초등학교 운동장,서울특별시 성동구 옥수동   233-16,2516,127.01556,37.541934,2,지진옥외대피소,3
15,서울특별시,성북구,고려대학사범대학부속중학교(운동장),서울특별시 성북구 정릉동   산1-2,3900,126.998978,37.610089,2,지진옥외대피소,3
15,서울특별시,강서구,화곡초등학교운동장,서울특별시 강서구 화곡본동 24-266,3630,126.846058,37.543223,2,지진옥외대피소,3
15,서울특별시,강남구,휘문고등학교 운동장,서울특별시 강남구 대치동   952-1,32455,127.062157,37.505153,2,지진옥외대피소,3
15,서울특별시,강남구,언주초등학교,서울특별시 강남구  남부순환로363길 19  (도곡동),785,127.037033,37.486646,1,지진실내구호소,3
15,서울특별시,중랑구,상봉터미널,서울특별시 중랑구 상봉동   83-1,20193,127.0915,37.596201,2,지진옥외대피소,3
15,서울특별시,은평구,응암초등학교 본관동,서울특별시 은평구  가좌로6길 20  (응암동),15274,126.921476,37.588389,1,지진실내구호소,3
15,서울특별시,양천구,신장어린이공원,서울특별시 양천구 신월동   486-0,983,126.842871,37.524082,2,지진옥외대피소,3
15,서울특별시,노원구,온수근린공원,서울특별시 노원구 상계동   686-0,550,127.063661,37.660923,2,지진옥외대피소,3
15,서울특별시,양천구,목3동 소공원(마을마당),서울특별시 양천구 목동   324-10,598,126.864821,37.544202,2,지진옥외대피소,3
15,서울특별시,강동구,성일초등학교,서울특별시 강동구 성내동   531-0,580,127.127998,37.52952,1,지진실내구호소,3
15,서울특별시,종로구,숭인공원,서울특별시 종로구 숭인동   58-0,4064,127.017649,37.576789,2,지진옥외대피소,3
15,서울특별시,서대문구,금화초등학교 운동장,서울특별시 서대문구 천연동   13-1,886,126.963188,37.568651,2,지진옥외대피소,3
15,서울특별시,동대문구,이문초등학교,서울특별시 동대문구  신이문로 16  (이문동),887,127.063844,37.602643,1,지진실내구호소,3
16,서울특별시,성동구,옥정중학교 운동장,서울특별시 성동구 옥수동   227-0,3189,127.012252,37.54159,2,지진옥외대피소,3
16,서울특별시,노원구,상수초등학교 운동장,서울특별시 노원구 상계동   755-0,2230,127.06492,37.652081,2,지진옥외대피소,3
16,서울특별시,마포구,두리어린이공원,서울특별시 마포구 망원동   436-1,1007,126.901256,37.560127,2,지진옥외대피소,3
16,서울특별시,서초구,가꿀공원,서울특별시 서초구 방배동   859-1,993,없음,없음,2,지진옥외대피소,3
16,서울특별시,성북구,정수초등학교(운동장),서울특별시 성북구 정릉동   431-62,2385,127.008056,37.60422,2,지진옥외대피소,3
16,서울특별시,양천구,창의어린이놀이터,서울특별시 양천구 목동   517,13366,126.878702,37.546558,2,지진옥외대피소,3
16,서울특별시,중랑구,면목5동 주민센터,서울특별시 중랑구  동일로 619  (면목동),147,127.079482,37.585833,1,지진실내구호소,3
16,서울특별시,금천구,무아래공원,서울특별시 금천구 가산동   234-29,1163,126.893254,37.473321,2,지진옥외대피소,3
16,서울특별시,용산구,달님소공원,서울특별시 용산구 문배동   46,1195,126.969715,37.538377,2,지진옥외대피소,3
16,서울특별시,강남구,대치중학교,서울특별시 강남구  남부순환로378길 39  (도곡동),1006,127.047462,37.484604,1,지진실내구호소,3
16,서울특별시,종로구,창신3동주민센터,서울특별시 종로구  지봉로 87  (창신동 창신이수아파트창신3동주민센터),118.8,127.01473,37.578026,1,지진실내구호소,3
16,서울특별시,관악구,미성중학교 운동장,서울특별시 관악구 신림동   745-24,2844,126.91215,37.475377,2,지진옥외대피소,3
16,서울특별시,송파구,잠실고등학교 운동장,서울특별시 송파구 신천동   17-1,16730,127.106128,37.522383,2,지진옥외대피소,3
16,서울특별시,도봉구,덕성여자대학교 운동장,서울특별시 도봉구 쌍문동   419,7659,127.016977,37.651659,2,지진옥외대피소,3
16,서울특별시,중구,덕수초등학교 운동장,서울특별시 중구 정동   1-76,1000,126.974366,37.568686,2,지진옥외대피소,3
16,서울특별시,중랑구,수경공원,서울특별시 중랑구 중화동   381-3,600,127.073788,37.603674,2,지진옥외대피소,3
16,서울특별시,영등포구,당산초등학교 운동장,서울특별시 영등포구 양평동4가   323-0,5085,126.89622,37.539409,2,지진옥외대피소,3
16,서울특별시,노원구,상계근린공원,서울특별시 노원구 상계동   620-0,4860,127.05066,37.66924,2,지진옥외대피소,3
16,서울특별시,구로구,구로중학교,서울특별시 구로구  구로중앙로 48  (구로동),708,126.886825,37.500538,1,지진실내구호소,3
16,서울특별시,은평구,은명초등학교 본관동,서울특별시 은평구  은평로4길 21-9  (응암동),14555,126.918271,37.59757,1,지진실내구호소,3
16,서울특별시,강서구,화일초등학교운동장,서울특별시 강서구 화곡본동 61-184,3347,126.847447,37.540733,2,지진옥외대피소,3
16,서울특별시,강남구,역삼초등학교,서울특별시 강남구 역삼동   833-7,5600,없음,없음,2,지진옥외대피소,3
17,서울특별시,용산구,솔밭어린이공원,서울특별시 용산구 한강로1가   47,2090,126.973609,37.536867,2,지진옥외대피소,3
17,서울특별시,중구,창덕여자중학교 운동장,서울특별시 중구 정동   27-3,3806,126.969577,37.566747,2,지진옥외대피소,3
17,서울특별시,서초구,동덕어린이공원,서울특별시 서초구 방배동   593-43,936,없음,없음,2,지진옥외대피소,3
17,서울특별시,양천구,목4동 소공원,서울특별시 양천구 목동   904-5,435,126.868856,37.532592,2,지진옥외대피소,3
17,서울특별시,중랑구,면목본동 주민센터,서울특별시 중랑구  면목로 397  (면목동),2567,127.087497,37.587491,1,지진실내구호소,3
17,서울특별시,영등포구,선유고등학교 운동장,서울특별시 영등포구 양평동4가   10-0,2424,126.895018,37.53369,2,지진옥외대피소,3
17,서울특별시,중랑구,수림대공원,서울특별시 중랑구 묵동   330-0,1620,127.071697,37.615162,2,지진옥외대피소,3
17,서울특별시,종로구,숭인1동주민센터,서울특별시 종로구  지봉로 86  (숭인동),770,127.015633,37.577836,1,지진실내구호소,3
17,서울특별시,은평구,연은초등학교 본관동,서울특별시 은평구  백련산로2길 35  (응암동),10568,126.925058,37.590349,1,지진실내구호소,3
17,서울특별시,마포구,망원자매공원,서울특별시 마포구 망원동   232-30,1711,126.897583,37.554735,2,지진옥외대피소,3
17,서울특별시,성북구,길음초등학교(운동장),서울특별시 성북구 길음동   635-7,1800,127.017672,37.614036,2,지진옥외대피소,3
17,서울특별시,강남구,대도초등학교,서울특별시 강남구  선릉로 209  (도곡동),1861,127.052832,37.492723,1,지진실내구호소,3
17,서울특별시,송파구,서울잠현초등학교 운동장,서울특별시 송파구 신천동   17-2,1750,127.104778,37.522412,2,지진옥외대피소,3
17,서울특별시,금천구,조마공원,서울특별시 금천구 가산동   148-11,1003,126.895548,37.475575,2,지진옥외대피소,3
17,서울특별시,구로구,세곡초등학교,서울특별시 구로구  고척로33길 34  (고척동),718,126.849119,37.504817,1,지진실내구호소,3
17,서울특별시,성동구,동호초등학교 운동장,서울특별시 성동구 옥수동   556-1,990,127.010155,37.546654,2,지진옥외대피소,3
17,서울특별시,노원구,상천초등학교 운동장,서울특별시 노원구 상계동   768-0,3500,127.057772,37.646283,2,지진옥외대피소,3
17,서울특별시,노원구,상계제일중학교 운동장,서울특별시 노원구 중계동   132-0,3470,127.077075,37.661403,2,지진옥외대피소,3
17,서울특별시,강서구,역말공원,서울특별시 강서구 화곡동   978-18,982,126.848946,37.549727,2,지진옥외대피소,3
17,서울특별시,도봉구,서울쌍문초등학교 운동장,서울특별시 도봉구 쌍문동   360-4,7785,127.024391,37.648603,2,지진옥외대피소,3
17,서울특별시,동작구,서울영화초등학교,서울특별시 동작구 대방동   44-3,2925,126.9337,37.5084,2,지진옥외대피소,3
17,서울특별시,강남구,도성초등학교 운동장,서울특별시 강남구 역삼동   714-0,11452,127.048965,37.501126,2,지진옥외대피소,3
18,서울특별시,강남구,역삼중학교 운동장,서울특별시 강남구 역삼동   767-20,6824,없음,없음,2,지진옥외대피소,3
18,서울특별시,강서구,이수공원,서울특별시 강서구 염창동   281-3,1805,126.874325,37.548204,2,지진옥외대피소,3
18,서울특별시,금천구,소망어린이공원,서울특별시 금천구 독산동   196-8,998,126.901555,37.469427,2,지진옥외대피소,3
18,서울특별시,구로구,고척중학교,서울특별시 구로구  중앙로3길 20  (고척동),849,126.862068,37.500226,1,지진실내구호소,3
18,서울특별시,은평구,증산중학교 다목적강당,서울특별시 은평구  증산로5길 27-30  (증산동),2001,126.904746,37.583462,1,지진실내구호소,3
18,서울특별시,마포구,경성고등학교 운동장,서울특별시 마포구 연남동   369-1,6474,126.919538,37.563156,2,지진옥외대피소,3
18,서울특별시,강서구,안골공원,서울특별시 강서구 화곡동   155-1,2382,126.850712,37.535647,2,지진옥외대피소,3
18,서울특별시,중랑구,면목고등학교,서울특별시 중랑구  용마산로72길 36-14  (면목동),6146,127.100763,37.587417,1,지진실내구호소,3
18,서울특별시,용산구,용산초등학교,서울특별시 용산구 한강로2가   1-0,1450,126.972371,37.535601,2,지진옥외대피소,3
18,서울특별시,서초구,양재근린공원,서울특별시 서초구 양재동   311,36523,127.042399,37.471584,2,지진옥외대피소,3
18,서울특별시,성동구,서울숲 공원,서울특별시 성동구 성수동1가   685-20,23755,127.040256,37.543658,2,지진옥외대피소,3
18,서울특별시,중랑구,신내근린공원,서울특별시 중랑구 신내동   652-0,37350,127.088919,37.614731,2,지진옥외대피소,3
18,서울특별시,성북구,길원초등학교(운동장),서울특별시 성북구 길음동   1280-4,1531,127.016723,37.609053,2,지진옥외대피소,3
18,서울특별시,송파구,서울잠동초등학교 운동장,서울특별시 송파구 신천동   7-2,7085,127.100048,37.517964,2,지진옥외대피소,3
18,서울특별시,종로구,아름꿈도서관,서울특별시 종로구  숭인동길 43  (숭인동),108,127.021835,37.576925,1,지진실내구호소,3
18,서울특별시,영등포구,양평어린이공원,서울특별시 영등포구 양평동4가   301-7,2845,126.898039,37.538174,2,지진옥외대피소,3
18,서울특별시,중구,리라초등학교,서울특별시 중구 예장동   8-148,3035,126.987934,37.557817,2,지진옥외대피소,3
18,서울특별시,동작구,강남중학교,서울특별시 동작구 대방동   390-6,3675,126.9201,37.5022,2,지진옥외대피소,3
18,서울특별시,성북구,대광초등학교(운동장),서울특별시 성북구 보문동7가   111-0,1967,127.023721,37.579094,2,지진옥외대피소,3
18,서울특별시,노원구,상경중학교 운동장,서울특별시 노원구 상계동   653-0,3530,127.053295,37.666916,2,지진옥외대피소,3
18,서울특별시,노원구,재현고등학교,서울특별시 노원구 중계동   129-1,4340,127.0813,37.661588,2,지진옥외대피소,3
18,서울특별시,강남구,대진초등학교,서울특별시 강남구  개포로109길 74  (개포동),330,127.078042,37.496686,1,지진실내구호소,3
19,서울특별시,성북구,계성고등학교(운동장),서울특별시 성북구 길음동   1284-15,3906,127.020386,37.607828,2,지진옥외대피소,3
19,서울특별시,동작구,서울문창초등학교,서울특별시 동작구 신대방동   640,1140,126.913912,37.488915,2,지진옥외대피소,3
19,서울특별시,송파구,서울풍납초등학교 운동장,서울특별시 송파구 풍납동   165,4350,127.117991,37.534762,2,지진옥외대피소,3
19,서울특별시,성동구,경일고등학교 운동장,서울특별시 성동구 성수동1가   22-27,5000,127.048106,37.543598,2,지진옥외대피소,3
19,서울특별시,구로구,고산초등학교,서울특별시 구로구  중앙로 6  (고척동),700,126.865397,37.499342,1,지진실내구호소,3
19,서울특별시,강남구,구룡중학교,서울특별시 강남구  선릉로 103  (개포동),1129,127.055745,37.486102,1,지진실내구호소,3
19,서울특별시,중랑구,봉화산근린공원,서울특별시 중랑구 신내동   655-2,26257,127.09291,37.608222,2,지진옥외대피소,3
19,서울특별시,마포구,느티나무어린이공원,서울특별시 마포구 연남동   563-5,991,126.918738,37.559711,2,지진옥외대피소,3
19,서울특별시,노원구,서울동일초등학교 운동장,서울특별시 노원구 상계동   655-0,2380,127.054641,37.665312,2,지진옥외대피소,3
19,서울특별시,중구,중림종합복지센터,서울특별시 중구  서소문로6길 16  (중림동),11282,126.966147,37.559472,1,지진실내구호소,3
19,서울특별시,강서구,공암나루근린공원,서울특별시 강서구 가양동   1459-9,25680,126.850106,37.569947,2,지진옥외대피소,3
19,서울특별시,성북구,숭덕초등학교(운동장),서울특별시 성북구 정릉동   173-0,3000,127.013871,37.604217,2,지진옥외대피소,3
19,서울특별시,중랑구,면목3.8동 주민센터,서울특별시 중랑구  사가정로51길 48  (면목동),228,127.088178,37.583051,1,지진실내구호소,3
19,서울특별시,영등포구,영원중학교 운동장,서울특별시 영등포구 영등포동   576-6,1053,126.914076,37.515644,2,지진옥외대피소,3
19,서울특별시,서초구,싸리재공원,서울특별시 서초구 잠원동   30-10,992,없음,없음,2,지진옥외대피소,3
19,서울특별시,영등포구,양평동 체련장,서울특별시 영등포구 양평동5가   128-1,1628,126.894563,37.541329,2,지진옥외대피소,3
19,서울특별시,노원구,서울원광초등학교 운동장,서울특별시 노원구 중계동   359-0,2280,127.075074,37.654217,2,지진옥외대피소,3
19,서울특별시,강남구,진선여자중학교 운동장,서울특별시 강남구 역삼동   713-0,6816,127.048422,37.501903,2,지진옥외대피소,3
19,서울특별시,강서구,염경중학교 운동장,서울특별시 강서구 염창동   79-8,2600,126.870897,37.554212,2,지진옥외대피소,3
19,서울특별시,용산구,기와터공원,서울특별시 용산구 한강로3가   63-388,2225,126.969638,37.525733,2,지진옥외대피소,3
19,서울특별시,은평구,증산초등학교 교사동,서울특별시 은평구  증산서길 61  (증산동),15770,126.904175,37.58268,1,지진실내구호소,3
19,서울특별시,중구,충무초등학교,서울특별시 중구 장충동2가   173-7,6250,127.001831,37.562327,2,지진옥외대피소,3
20,서울특별시,노원구,청암중고등학교 운동장,서울특별시 노원구 중계동   411-1,1280,127.074413,37.651327,2,지진옥외대피소,3
20,서울특별시,마포구,은행나무어린이공원,서울특별시 마포구 연남동   250-9,994,126.922316,37.56457,2,지진옥외대피소,3
20,서울특별시,송파구,서울토성초등학교 운동장,서울특별시 송파구 풍납동   251,2178,127.115141,37.531798,2,지진옥외대피소,3
20,서울특별시,용산구,강변어린이공원,서울특별시 용산구 이촌동   408,1767,126.974996,37.521334,2,지진옥외대피소,3
20,서울특별시,강서구,아리수공원,서울특별시 강서구 염창동   299-3,863,126.875216,37.551667,2,지진옥외대피소,3
20,서울특별시,노원구,노원고등학교 운동장,서울특별시 노원구 상계동   664-0,2930,127.053168,37.662753,2,지진옥외대피소,3
20,서울특별시,성북구,미아초등학교(운동장),서울특별시 성북구 길음동   1168-0,3840,127.021817,37.610329,2,지진옥외대피소,3
20,서울특별시,영등포구,서울영원초등학교 운동장,서울특별시 영등포구 영등포동   647-2,1900,126.90243,37.5105,2,지진옥외대피소,3
20,서울특별시,성동구,경동초등학교 운동장,서울특별시 성동구 성수동1가   19-1,2000,127.050452,37.542955,2,지진옥외대피소,3
20,서울특별시,동작구,대방중학교,서울특별시 동작구 신대방동   492-200,2007,126.9137,37.4951,2,지진옥외대피소,3
20,서울특별시,은평구,수색초등학교,서울특별시 은평구  수색로16길 21  (수색동),12631,126.895569,37.58503,1,지진실내구호소,3
20,서울특별시,강서구,공진중학교 운동장,서울특별시 강서구 가양동   1476-0,3487,126.851137,37.566615,2,지진옥외대피소,3
20,서울특별시,성북구,길음중학교(운동장),서울특별시 성북구 길음동   635-7,2591,127.017077,37.614189,2,지진옥외대피소,3
20,서울특별시,구로구,고원초등학교,서울특별시 구로구  경인로46길 13  (고척동),685,126.865797,37.497566,1,지진실내구호소,3
20,서울특별시,강남구,은광여자고등학교 운동장,서울특별시 강남구 도곡동   938-10,16544,127.035284,37.488524,2,지진옥외대피소,3
20,서울특별시,서초구,명주근린공원,서울특별시 서초구 잠원동   50-4,4953,없음,없음,2,지진옥외대피소,3
20,서울특별시,중구,덕수중학교,서울특별시 중구 인현동2가   3-0,7710,126.997211,37.565229,2,지진옥외대피소,3
20,서울특별시,서초구,양재초등학교,서울특별시 서초구  바우뫼로18길 14  (양재동),558,127.031994,37.473816,1,지진실내구호소,3
20,서울특별시,영등포구,장훈고등학교 운동장,서울특별시 영등포구 신길동   176-0,3300,126.915434,37.513797,2,지진옥외대피소,3
20,서울특별시,중랑구,능말공원,서울특별시 중랑구 신내동   214-8,19101,127.108967,37.616998,2,지진옥외대피소,3
20,서울특별시,중랑구,상봉중학교,서울특별시 중랑구  상봉중앙로8나길 28  (상봉동),2613,127.090289,37.601294,1,지진실내구호소,3
20,서울특별시,종로구,청운초등학교,서울특별시 종로구  자하문로 105  (청운동),12957,126.969415,37.585976,1,지진실내구호소,3
21,서울특별시,마포구,마포대진유치원,서울특별시 마포구 연남동   493-6,886,126.91939,37.561882,2,지진옥외대피소,3
21,서울특별시,서초구,우면초등학교,서울특별시 서초구  태봉로 59  (우면동),764,127.023597,37.464666,1,지진실내구호소,3
21,서울특별시,은평구,연천중학교,서울특별시 은평구  연서로41길 30  (불광동),998,126.925801,37.627526,1,지진실내구호소,3
21,서울특별시,중랑구,신현고등학교,서울특별시 중랑구 상봉동   482,651,127.092653,37.605005,1,지진실내구호소,3
21,서울특별시,영등포구,우신초등학교 운동장,서울특별시 영등포구 신길동   210-0,3404,126.912004,37.509417,2,지진옥외대피소,3
21,서울특별시,성동구,경일초등학교 운동장,서울특별시 성동구 성수동1가   656-32,7025,127.046937,37.540276,2,지진옥외대피소,3
21,서울특별시,은평구,은평초등학교 운동장,서울특별시 은평구 녹번동   40-3,5400,126.934431,37.601795,2,지진옥외대피소,3
21,서울특별시,영등포구,영일어린이공원,서울특별시 영등포구 영등포동   647-3,2016,126.903878,37.510109,2,지진옥외대피소,3
21,서울특별시,성북구,숭례초등학교(운동장),서울특별시 성북구 종암동   22-1,837,127.034897,37.594923,2,지진옥외대피소,3
21,서울특별시,노원구,서울상경초등학교 운동장,서울특별시 노원구 상계동   621-0,2660,127.051911,37.670383,2,지진옥외대피소,3
21,서울특별시,종로구,종로문화체육센터,서울특별시 종로구  인왕산로1길 21  (사직동),2167,126.964625,37.574132,1,지진실내구호소,3
21,서울특별시,강서구,백합공원,서울특별시 강서구 염창동   267-24,939,126.869375,37.551182,2,지진옥외대피소,3
21,서울특별시,강남구,도곡중학교 운동장,서울특별시 강남구 도곡동   541-2,3200,없음,없음,2,지진옥외대피소,3
21,서울특별시,송파구,풍성중학교 운동장,서울특별시 송파구 풍납동   388-16,7260,127.112422,37.525399,2,지진옥외대피소,3
21,서울특별시,성북구,숭곡중학교(운동장),서울특별시 성북구 하월곡동   87-1,3300,127.031585,37.608395,2,지진옥외대피소,3
21,서울특별시,용산구,용강중학교,서울특별시 용산구 이촌동   301-78,6348,126.975881,37.521202,2,지진옥외대피소,3
21,서울특별시,서초구,신동근린공원,서울특별시 서초구 잠원동   58-14,6648,없음,없음,2,지진옥외대피소,3
21,서울특별시,구로구,경인고등학교,서울특별시 구로구  경인로46길 31  (고척동),2599,126.865397,37.496837,1,지진실내구호소,3
21,서울특별시,강서구,황금내근린공원,서울특별시 강서구 가양동   1485-5,22003,126.863721,37.561993,2,지진옥외대피소,3
21,서울특별시,동작구,문창중학교,서울특별시 동작구 신대방동   364-58,3801,126.921772,37.495826,2,지진옥외대피소,3
22,서울특별시,강서구,백석초등학교운동장,서울특별시 강서구 등촌동   650-14,2145,126.862035,37.553252,2,지진옥외대피소,3
22,서울특별시,노원구,상원초등학교 운동장,서울특별시 노원구 상계동   645-0,3970,127.05962,37.667813,2,지진옥외대피소,3
22,서울특별시,성북구,종암중학교(운동장),서울특별시 성북구 종암동   32-3,1027,127.032287,37.593073,2,지진옥외대피소,3
22,서울특별시,영등포구,영등포근린공원,서울특별시 영등포구 영등포동   582-3,61544,126.910144,37.514937,2,지진옥외대피소,3
22,서울특별시,은평구,연신중학교,서울특별시 은평구  연서로33길 16-32  (불광동),808,126.924953,37.623703,1,지진실내구호소,3
22,서울특별시,서초구,청룡어린이공원,서울특별시 서초구 반포동   86-1,945,없음,없음,2,지진옥외대피소,3
22,서울특별시,마포구,성서중학교 운동장 ,서울특별시 마포구 성산동   587-4,8429,126.908463,37.563098,2,지진옥외대피소,3
22,서울특별시,서초구,신반포중학교,서울특별시 서초구  신반포로19길 26  (반포동),7464,126.996128,37.505688,1,지진실내구호소,3
22,서울특별시,성북구,남대문중학교(운동장),서울특별시 성북구 장위동   126-0,4768,127.055688,37.61837,2,지진옥외대피소,3
22,서울특별시,은평구,녹번동마을마당,서울특별시 은평구 녹번동   104-7,754,126.927597,37.606096,2,지진옥외대피소,3
22,서울특별시,용산구,비상공원,서울특별시 용산구 이촌동   417,889,126.971379,37.5223,2,지진옥외대피소,3
22,서울특별시,송파구,영파여자중학교 운동장,서울특별시 송파구 풍납동   501,5385,127.120149,37.532557,2,지진옥외대피소,3
22,서울특별시,종로구,매동초등학교,서울특별시 종로구  사직로9길 19  (필운동),703,126.966855,37.5775,1,지진실내구호소,3
22,서울특별시,강서구,화원중학교 체육관,서울특별시 강서구  강서로17나길 86  (화곡동),1650,126.842567,37.536716,1,지진실내구호소,3
22,서울특별시,강서구,덕원중학교 운동장,서울특별시 강서구 내발산동   산59-2,1485,126.829493,37.549834,2,지진옥외대피소,3
22,서울특별시,동작구,수도여자고등학교,서울특별시 동작구 신대방동   470-13,3256,126.915514,37.493069,2,지진옥외대피소,3
22,서울특별시,영등포구,도림초등학교 운동장,서울특별시 영등포구 신길동   285-1,659,126.907341,37.508234,2,지진옥외대피소,3
22,서울특별시,성동구,성원어린이 공원,서울특별시 성동구 성수동1가   13-21,983,127.049888,37.55036,2,지진옥외대피소,3
22,서울특별시,강남구,은성중학교 운동장,서울특별시 강남구 도곡동   938-10,16544,127.036232,37.487844,2,지진옥외대피소,3
22,서울특별시,중랑구,상봉1동 주민센터,서울특별시 중랑구  상봉중앙로1길 6  (상봉동),271,127.087077,37.599861,1,지진실내구호소,3
23,서울특별시,강북구,소공원,서울특별시 강북구 미아동   762-121,1145,127.017396,37.625113,2,지진옥외대피소,3
23,서울특별시,용산구,이촌어린이공원,서울특별시 용산구 이촌동   301-60,1737,126.979774,37.518738,2,지진옥외대피소,3
23,서울특별시,영등포구,영신초등학교 운동장,서울특별시 영등포구 신길동   121-0,3270,126.918432,37.509817,2,지진옥외대피소,3
23,서울특별시,은평구,서광교회,서울특별시 은평구  통일로 951  (갈현동),1167,126.919281,37.627767,1,지진실내구호소,3
23,서울특별시,서초구,구립반포본동경로당,서울특별시 서초구  신반포로 32  (반포동 반포아파트),72.6,126.991365,37.504243,1,지진실내구호소,3
23,서울특별시,종로구,평창동주민센터,서울특별시 종로구  평창문화로 65  (평창동),108,126.968398,37.606371,1,지진실내구호소,3
23,서울특별시,강서구,발산근린공원,서울특별시 강서구 내발산동   739-0,17826,126.825533,37.55471,2,지진옥외대피소,3
23,서울특별시,노원구,청원초등학교 운동장,서울특별시 노원구 상계동   641-0,3140,127.063043,37.666302,2,지진옥외대피소,3
23,서울특별시,강남구,중대부속고등학교 운동장,서울특별시 강남구 도곡동   산21-0,9107,없음,없음,2,지진옥외대피소,3
23,서울특별시,강서구,등촌초등학교운동장,서울특별시 강서구 등촌동   520-4,2700,126.858369,37.547642,2,지진옥외대피소,3
23,서울특별시,은평구,은평평화공원,서울특별시 은평구 녹번동   153-19,5700,126.923531,37.604681,2,지진옥외대피소,3
23,서울특별시,송파구,풍납중학교 운동장,서울특별시 송파구 풍납동   390,8721,127.116401,37.525457,2,지진옥외대피소,3
23,서울특별시,중랑구,중곡초등학교,서울특별시 중랑구  면목로23길 20  (면목동),4111,127.083759,37.574264,1,지진실내구호소,3
23,서울특별시,성북구,숭인초등학교(운동장),서울특별시 성북구 하월곡동   222-4,3700,127.038406,37.608936,2,지진옥외대피소,3
23,서울특별시,강서구,화곡초등학교 체육관,서울특별시 강서구  초록마을로 28  (화곡동),3630,126.84595,37.543209,1,지진실내구호소,3
23,서울특별시,영등포구,중마루근린공원,서울특별시 영등포구 영등포동2가   222-0,6456,126.911246,37.519809,2,지진옥외대피소,3
23,서울특별시,마포구,큰길어린이공원,서울특별시 마포구 성산동   200-50,942,126.908214,37.567722,2,지진옥외대피소,3
23,서울특별시,서초구,서래상상어린이공원,서울특별시 서초구 반포동   71-6,997,없음,없음,2,지진옥외대피소,3
23,서울특별시,동작구,서울보라매초등학교,서울특별시 동작구 신대방동   488-1,1662,126.9161,37.4958,2,지진옥외대피소,3
23,서울특별시,성동구,성수공업고등학교 운동장,서울특별시 성동구 성수동2가   333-128,3000,127.051146,37.540194,2,지진옥외대피소,3
24,서울특별시,동작구,(주)농심,서울특별시 동작구 신대방동   370-1,3236,126.9185,37.4969,2,지진옥외대피소,3
24,서울특별시,강남구,독골근린공원,서울특별시 강남구 도곡동   461-0,10023,없음,없음,2,지진옥외대피소,3
24,서울특별시,관악구,봉림중학교,서울특별시 관악구  장군봉길 72  (봉천동),978,126.93819,37.480736,1,지진실내구호소,3
24,서울특별시,중랑구,중화고등학교,서울특별시 중랑구  봉화산로27길 62  (중화동),912,127.083054,37.604647,1,지진실내구호소,3
24,서울특별시,노원구,상원중학교,서울특별시 노원구 상계동   632-0,2180,127.059665,37.671881,2,지진옥외대피소,3
24,서울특별시,종로구,독립문초등학교,서울특별시 종로구  통일로12길 9  (무악동),9338,126.95995,37.573314,1,지진실내구호소,3
24,서울특별시,성북구,성북구도시관리공단(주차장),서울특별시 성북구 하월곡동   226-4,925,127.041114,37.600428,2,지진옥외대피소,3
24,서울특별시,성동구,경수초등학교 운동장,서울특별시 성동구 성수동2가   268-0,3154,127.058311,37.540273,2,지진옥외대피소,3
24,서울특별시,영등포구,대방초등학교 운동장,서울특별시 영등포구 신길동   1444,512,126.919268,37.50253,2,지진옥외대피소,3
24,서울특별시,강서구,발음공원,서울특별시 강서구 내발산동   697-0,914,126.833214,37.552027,2,지진옥외대피소,3
24,서울특별시,영등포구,중앙어린이공원,서울특별시 영등포구 영등포동6가   65-1,3672,126.903717,37.521357,2,지진옥외대피소,3
24,서울특별시,송파구,서울풍성초등학교 운동장,서울특별시 송파구 풍납동   388-8,6240,127.11327,37.526066,2,지진옥외대피소,3
24,서울특별시,강북구,화계초등학교운동장,서울특별시 강북구 미아동   127-2,6500,127.029261,37.623864,2,지진옥외대피소,3
24,서울특별시,은평구,광현교회,서울특별시 은평구  연서로27길 31-7  (갈현동),1079,126.916103,37.618357,1,지진실내구호소,3
24,서울특별시,강서구,등촌중학교운동장,서울특별시 강서구 등촌동   534-9,2088,126.859403,37.552463,2,지진옥외대피소,3
24,서울특별시,마포구,중동초등학교 운동장,서울특별시 마포구 성산동   94-1,5400,126.911345,37.566644,2,지진옥외대피소,3
24,서울특별시,은평구,불광초등학교 운동장,서울특별시 은평구 불광동   272-2,4896,126.930956,37.612794,2,지진옥외대피소,3
24,서울특별시,강서구,신정초등학교 체육관,서울특별시 강서구  곰달래로31가길 27  (화곡동),19919,126.852548,37.532725,1,지진실내구호소,3
24,서울특별시,서초구,서래근린공원,서울특별시 서초구 반포동   63-2,4690,없음,없음,2,지진옥외대피소,3
24,서울특별시,용산구,청탑공원,서울특별시 용산구 이촌동   425,547,126.977318,37.517765,2,지진옥외대피소,3
25,서울특별시,관악구,신봉초등학교,서울특별시 관악구  양녕로6나길 1  (봉천동),868,126.949271,37.48571,1,지진실내구호소,3
25,서울특별시,용산구,사촌어린이공원,서울특별시 용산구 이촌동   429,1500,126.970887,37.520601,2,지진옥외대피소,3
25,서울특별시,영등포구,영중초등학교 운동장,서울특별시 영등포구 영등포동7가   53-0,3108,126.903821,37.523399,2,지진옥외대피소,3
25,서울특별시,강남구,숙명여자고등학교 운동장,서울특별시 강남구 도곡동   91-0,13170,127.053397,37.491227,2,지진옥외대피소,3
25,서울특별시,마포구,성원초등학교 운동장,서울특별시 마포구 성산동   175-1,10784,126.905039,37.567104,2,지진옥외대피소,3
25,서울특별시,관악구,당곡초등학교 운동장,서울특별시 관악구 봉천동   692-8,3741,126.929985,37.490156,2,지진옥외대피소,3
25,서울특별시,강북구,창문여자고등학교운동장,서울특별시 강북구 미아동   8-6,5000,127.036541,37.612757,2,지진옥외대피소,3
25,서울특별시,영등포구,대길초등학교 운동장,서울특별시 영등포구 신길동   4482-0,198,126.914067,37.498093,2,지진옥외대피소,3
25,서울특별시,은평구,은혜초등학교 운동장,서울특별시 은평구 불광동   331-27,2800,126.927347,37.61787,2,지진옥외대피소,3
25,서울특별시,서초구,미도어린이공원,서울특별시 서초구 반포동   53-1,988,127.010737,37.501699,2,지진옥외대피소,3
25,서울특별시,강서구,양천초등학교 체육관,서울특별시 강서구  양천로 329  (가양동),2145,126.83946,37.570024,1,지진실내구호소,3
25,서울특별시,강서구,등현초등학교운동장,서울특별시 강서구 등촌동   702-5,1980,126.847762,37.561295,2,지진옥외대피소,3
25,서울특별시,노원구,불암중학교,서울특별시 노원구  한글비석로5길 45  (하계동),3425,127.07376,37.646019,1,지진실내구호소,3
25,서울특별시,성동구,경수중학교 운동장,서울특별시 성동구 성수동2가   268-0,3210,127.058321,37.539541,2,지진옥외대피소,3
25,서울특별시,노원구,온곡초등학교 운동장,서울특별시 노원구 상계동   638-0,1580,127.06589,37.667612,2,지진옥외대피소,3
25,서울특별시,성북구,서울도시과학기술고등학교(운동장),서울특별시 성북구 하월곡동   90-1,4647,127.032994,37.607651,2,지진옥외대피소,3
25,서울특별시,강서구,범바위공원,서울특별시 강서구 화곡동   1061-36,974,126.8414,37.543259,2,지진옥외대피소,3
25,서울특별시,중랑구,장안중학교,서울특별시 중랑구 중화동   288-26,2190,127.080724,37.60052,1,지진실내구호소,3
25,서울특별시,송파구,영파여자고등학교 운동장,서울특별시 송파구 풍납동   501,5385,127.120149,37.532557,2,지진옥외대피소,3
26,서울특별시,송파구,가락중학교 운동장,서울특별시 송파구 송파동   168,6944,127.118365,37.5022,2,지진옥외대피소,3
26,서울특별시,용산구,이촌한우리공원,서울특별시 용산구 이촌동   437,4325,126.981072,37.517318,2,지진옥외대피소,3
26,서울특별시,노원구,중평초등학교,서울특별시 노원구  섬밭로 241  (하계동),1325,127.063758,37.637522,1,지진실내구호소,3
26,서울특별시,마포구,상지초등학교 운동장,서울특별시 마포구 상암동   1676,2200,126.882188,37.579575,2,지진옥외대피소,3
26,서울특별시,강남구,압구정중학교 운동장,서울특별시 강남구 압구정동   471-0,8496,없음,없음,2,지진옥외대피소,3
26,서울특별시,관악구,구암중학교 운동장,서울특별시 관악구 봉천동   1712-5,3150,126.948363,37.492751,2,지진옥외대피소,3
26,서울특별시,성동구,성수초등학교 운동장,서울특별시 성동구 성수동2가   277-32,6242,127.0525,37.544711,2,지진옥외대피소,3
26,서울특별시,노원구,상곡초등학교 운동장,서울특별시 노원구 상계동   678-0,2640,127.062328,37.662714,2,지진옥외대피소,3
26,서울특별시,강서구,공진중학교 체육관,서울특별시 강서구  양천로55길 56  (가양동),580,126.851005,37.566485,1,지진실내구호소,3
26,서울특별시,은평구,연광초등학교 운동장,서울특별시 은평구 불광동   400-6,3390,126.924223,37.623866,2,지진옥외대피소,3
26,서울특별시,서초구,언남초등학교,서울특별시 서초구  염곡안1길 25  (염곡동),4912,127.05166,37.463765,1,지진실내구호소,3
26,서울특별시,중랑구,중랑구청,서울특별시 중랑구  봉화산로 17  (중화동),27797,127.092624,37.606704,1,지진실내구호소,3
26,서울특별시,강북구,송중초등학교운동장,서울특별시 강북구 미아동   94-1,5100,127.031432,37.61706,2,지진옥외대피소,3
26,서울특별시,강서구,원당공원,서울특별시 강서구 내발산동   650-0,992,126.842084,37.557388,2,지진옥외대피소,3
26,서울특별시,영등포구,영신고등학교 운동장,서울특별시 영등포구 신길동   4656-2,4428,126.909577,37.49758,2,지진옥외대피소,3
26,서울특별시,강서구,등마초등학교 운동장,서울특별시 강서구 등촌동   718-0,2715,126.862063,37.541965,2,지진옥외대피소,3
26,서울특별시,영등포구,서강어린이공원,서울특별시 영등포구 영등포동8가   28-0,1797,126.905861,37.525811,2,지진옥외대피소,3
26,서울특별시,강동구,신명초교,서울특별시 강동구  명일로24길 33  (길동),1006,127.149629,37.541477,1,지진실내구호소,3
26,서울특별시,성북구,숭곡초등학교(운동장),서울특별시 성북구 하월곡동   84-86,3650,127.032632,37.608504,2,지진옥외대피소,3
26,서울특별시,서초구,분토골어린이공원,서울특별시 서초구 서초동   1627-4,999,없음,없음,2,지진옥외대피소,3
27,서울특별시,영등포구,여의도여자고등학교 운동장,서울특별시 영등포구 여의도동   40-2,2390,126.935162,37.522664,2,지진옥외대피소,3
27,서울특별시,마포구,상암초등학교 운동장,서울특별시 마포구 상암동   1635,3561,126.892141,37.576105,2,지진옥외대피소,3
27,서울특별시,성북구,월곡중학교(운동장),서울특별시 성북구 상월곡동   35-1,3800,127.048028,37.606673,2,지진옥외대피소,3
27,서울특별시,강서구,염강초등학교 강당,서울특별시 강서구  허준로 221-22  (가양동),598,126.86445,37.560886,1,지진실내구호소,3
27,서울특별시,강서구,도림공원,서울특별시 강서구 등촌동   635-1,1034,126.862868,37.555568,2,지진옥외대피소,3
27,서울특별시,노원구,서울상월초등학교 운동장,서울특별시 노원구 상계동   697-0,4330,127.057266,37.658608,2,지진옥외대피소,3
27,서울특별시,노원구,중평중학교,서울특별시 노원구  동일로203길 87  (하계동),2534,127.06235,37.637007,1,지진실내구호소,3
27,서울특별시,강남구,압구정고등학교 운동장,서울특별시 강남구 압구정동   470-0,7977,없음,없음,2,지진옥외대피소,3
27,서울특별시,강북구,체류지 마을마당,서울특별시 강북구 미아동   51-29,1093,127.03073,37.611875,2,지진옥외대피소,3
27,서울특별시,성동구,송원초등학교 운동장,서울특별시 성동구 송정동   72-8,738,127.069348,37.554055,2,지진옥외대피소,3
27,서울특별시,송파구,서울중대초등학교 운동장,서울특별시 송파구 송파동   191,5100,127.11371,37.500104,2,지진옥외대피소,3
27,서울특별시,은평구,서울세명컴퓨터고등학교 운동장,서울특별시 은평구 불광동   445-35,2260,126.923832,37.627867,2,지진옥외대피소,3
27,서울특별시,용산구,이태원초등학교 운동장,서울특별시 용산구 이태원동   406,1206,126.988025,37.535867,2,지진옥외대피소,3
27,서울특별시,서초구,용허리근린공원,서울특별시 서초구 서초동   1324-1,4641,없음,없음,2,지진옥외대피소,3
27,서울특별시,강서구,송정초등학교 운동장,서울특별시 강서구 공항동   22-16,6837,126.810892,37.562181,2,지진옥외대피소,3
27,서울특별시,강동구,둔촌중학교,서울특별시 강동구  진황도로61길 25-30  (둔촌동),1226,127.146206,37.530336,1,지진실내구호소,3
27,서울특별시,중랑구,신묵초등학교,서울특별시 중랑구  동일로149길 46  (묵동),10311,127.075552,37.60717,1,지진실내구호소,3
27,서울특별시,서초구,서일초등학교,서울특별시 서초구  남부순환로339길 38  (서초동),653,127.022633,37.484812,1,지진실내구호소,3
27,서울특별시,영등포구,대영중학교 운동장,서울특별시 영등포구 신길동   342-49,3600,126.905209,37.503118,2,지진옥외대피소,3
27,서울특별시,관악구,인헌초등학교 운동장,서울특별시 관악구 봉천동   212-3,14313,126.960237,37.476371,2,지진옥외대피소,3
28,서울특별시,노원구,용화여자고등학교 운동장,서울특별시 노원구 상계동   696-0,3370,127.057999,37.659097,2,지진옥외대피소,3
28,서울특별시,영등포구,윤중초등학교 운동장,서울특별시 영등포구 여의도동   38-0,198,126.923073,37.519604,2,지진옥외대피소,3
28,서울특별시,영등포구,신길근린공원,서울특별시 영등포구 신길동   341-3,19504,126.905991,37.50144,2,지진옥외대피소,3
28,서울특별시,강서구,새나라공원,서울특별시 강서구 등촌동   707-2,1563,126.852023,37.561529,2,지진옥외대피소,3
28,서울특별시,강북구,영훈고등학교운동장,서울특별시 강북구 미아동   471-2,17098,127.027897,37.613685,2,지진옥외대피소,3
28,서울특별시,중랑구,묵현초등학교,서울특별시 중랑구  동일로157길 75  (묵동),12938,127.073652,37.608984,1,지진실내구호소,3
28,서울특별시,마포구,휴암문화공원,서울특별시 마포구 상암동   670-0,5285,126.880375,37.582983,2,지진옥외대피소,3
28,서울특별시,용산구,이태원 마을숲 소공원,서울특별시 용산구 이태원동   260-93,867,126.991476,37.541228,2,지진옥외대피소,3
28,서울특별시,노원구,수암초등학교,서울특별시 노원구  중계로12길 9  (중계동),1219,127.081675,37.648105,1,지진실내구호소,3
28,서울특별시,서초구,사도감어린이공원,서울특별시 서초구 서초동   1359-12,946,없음,없음,2,지진옥외대피소,3
28,서울특별시,강남구,언북초등학교 운동장,서울특별시 강남구 청담동   27-0,3750,127.045344,37.519973,2,지진옥외대피소,3
28,서울특별시,성동구,송정체육공원,서울특별시 성동구 송정동 73-254,3350,127.065302,37.557815,2,지진옥외대피소,3
28,서울특별시,서초구,서이초등학교,서울특별시 서초구  서운로 35  (서초동),875,127.025948,37.491201,1,지진실내구호소,3
28,서울특별시,성북구,장위초등학교(운동장),서울특별시 성북구 장위동   68-8,4528,127.049827,37.612103,2,지진옥외대피소,3
28,서울특별시,송파구,서울송파초등학교 운동장,서울특별시 송파구 송파동   114,9070,127.110752,37.507053,2,지진옥외대피소,3
28,서울특별시,은평구,불광어린이공원,서울특별시 은평구 불광동   236-5,496,126.931436,37.6164,2,지진옥외대피소,3
28,서울특별시,강서구,장미공원,서울특별시 강서구 공항동   668-0,1662,126.8138,37.556743,2,지진옥외대피소,3
28,서울특별시,관악구,영락고등학교 운동장,서울특별시 관악구 봉천동   1558-1,9498,126.944366,37.476481,2,지진옥외대피소,3
28,서울특별시,강서구,가곡초등학교 교실,서울특별시 강서구  공항대로36길 74  (마곡동),1650,126.835822,37.555284,1,지진실내구호소,3
29,서울특별시,노원구,계상초등학교,서울특별시 노원구  한글비석로41가길 24  (상계동),922,127.068073,37.663084,1,지진실내구호소,3
29,서울특별시,노원구,온곡중학교 운동장,서울특별시 노원구 상계동   687-0,7090,127.064953,37.66052,2,지진옥외대피소,3
29,서울특별시,송파구,일신여자상업고등학교 운동장,서울특별시 송파구 송파동   99-2,13369,127.113485,37.501784,2,지진옥외대피소,3
29,서울특별시,강남구,영동고등학교 운동장,서울특별시 강남구 청담동   23-4,43546,없음,없음,2,지진옥외대피소,3
29,서울특별시,관악구,봉림중학교 운동장,서울특별시 관악구 봉천동   1531-38,9498,126.938151,37.480714,2,지진옥외대피소,3
29,서울특별시,성북구,장월초등학교(운동장),서울특별시 성북구 장위동   316-0,1560,127.046847,37.621997,2,지진옥외대피소,3
29,서울특별시,서초구,신중초등학교,서울특별시 서초구  남부순환로317길 15  (서초동),784,127.009794,37.479923,1,지진실내구호소,3
29,서울특별시,서초구,마산말어린이공원,서울특별시 서초구 서초동   1343-8,984,없음,없음,2,지진옥외대피소,3
29,서울특별시,마포구,상암중학교,서울특별시 마포구 상암동   1657-0,3410,126.887953,37.578843,2,지진옥외대피소,3
29,서울특별시,양천구,목일중학교 운동장,서울특별시 양천구 신정동   330-2,2346,126.873763,37.513375,2,지진옥외대피소,3
29,서울특별시,영등포구,여의도초등학교 운동장,서울특별시 영등포구 여의도동   40-3,2838,126.936663,37.522863,2,지진옥외대피소,3
29,서울특별시,강북구,삼각산고등학교 운동장,서울특별시 강북구 미아동   812-4,1812,127.019084,37.616002,2,지진옥외대피소,3
29,서울특별시,강서구,등마루공원,서울특별시 강서구 등촌동   641-5,971,126.857393,37.556001,2,지진옥외대피소,3
29,서울특별시,중랑구,원묵고등학교,서울특별시 중랑구  숙선옹주로 82  (묵동),714,127.086037,37.615419,1,지진실내구호소,3
29,서울특별시,은평구,불광중학교 운동장,서울특별시 은평구 불광동   173-0,6985,126.931459,37.623128,2,지진옥외대피소,3
29,서울특별시,강서구,내발산초등학교 체육관,서울특별시 강서구  강서로46길 23  (내발산동),2475,126.837868,37.551268,1,지진실내구호소,3
29,서울특별시,성동구,용답토속 공원,서울특별시 성동구 용답동   223-0,4832,127.056749,37.563322,2,지진옥외대피소,3
29,서울특별시,용산구,소월길 어린이공원,서울특별시 용산구 이태원동   463,1630,126.989216,37.543548,2,지진옥외대피소,3
29,서울특별시,영등포구,대영고등학교 운동장,서울특별시 영등포구 신길동   336-2,6469,126.906163,37.503457,2,지진옥외대피소,3
30,서울특별시,영등포구,평화어린이공원,서울특별시 영등포구 여의도동   50-2,4595,126.937974,37.521181,2,지진옥외대피소,3
30,서울특별시,강북구,삼각산초등학교 운동장,서울특별시 강북구 미아동   1353-10,984,127.015297,37.61623,2,지진옥외대피소,3
30,서울특별시,노원구,상계제일중학교,서울특별시 노원구  덕릉로86길 29-15  (중계동),396,127.0778,37.661678,1,지진실내구호소,3
30,서울특별시,강서구,등서공원,서울특별시 강서구 등촌동   639-2,880,126.854562,37.559185,2,지진옥외대피소,3
30,서울특별시,송파구,가락고등학교 운동장,서울특별시 송파구 송파동   172,5478,127.116904,37.501251,2,지진옥외대피소,3
30,서울특별시,서초구,서울고등학교,서울특별시 서초구  효령로 197  (서초동),2520,127.006047,37.483961,1,지진실내구호소,3
30,서울특별시,용산구,라틴아메리카공원,서울특별시 용산구 이태원동   258-467,728,126.996963,37.540774,2,지진옥외대피소,3
30,서울특별시,동작구,서울신길초등학교,서울특별시 동작구 대방동   351-6,2688,126.9266,37.5104,2,지진옥외대피소,3
30,서울특별시,마포구,구룡근린공원,서울특별시 마포구 상암동   1583-0,14402,126.88359,37.582942,2,지진옥외대피소,3
30,서울특별시,강서구,송정중학교 체육관,서울특별시 강서구  남부순환로 121  (공항동),869,126.815248,37.553596,1,지진실내구호소,3
30,서울특별시,성동구,용답초등학교 운동장,서울특별시 성동구 용답동   29-0,6034,127.053544,37.560777,2,지진옥외대피소,3
30,서울특별시,서초구,본마을공원,서울특별시 서초구 신원동   445,1234,없음,없음,2,지진옥외대피소,3
30,서울특별시,성북구,장곡초등학교(운동장),서울특별시 성북구 장위동   235-0,1886,127.048272,37.616696,2,지진옥외대피소,3
30,서울특별시,광진구,광진초,서울특별시 광진구  자양로40길 41  (구의동),850,127.052878,37.325105,1,지진실내구호소,3
30,서울특별시,은평구,녹번초등학교 운동장,서울특별시 은평구 녹번동   174-0,2700,126.926242,37.604287,2,지진옥외대피소,3
30,서울특별시,양천구,신목고등학교 운동장,서울특별시 양천구 신정동   330-3,3343,126.873461,37.512829,2,지진옥외대피소,3
30,서울특별시,은평구,연신초등학교 운동장,서울특별시 은평구 불광동   73-1,3926,126.928338,37.626327,2,지진옥외대피소,3
30,서울특별시,영등포구,신길광장,서울특별시 영등포구 신길동   431-28,1550,126.905901,37.499915,2,지진옥외대피소,3
30,서울특별시,강남구,청담은행나무공원,서울특별시 강남구 청담동   94-4,1644,없음,없음,2,지진옥외대피소,3
31,서울특별시,영등포구,신길유수지,서울특별시 영등포구 신길동   54-6,2670,126.917637,37.516098,2,지진옥외대피소,3
31,서울특별시,용산구,독서당어린이공원,서울특별시 용산구 한남동   1-32,469,127.01247,37.534432,2,지진옥외대피소,3
31,서울특별시,강북구,고갯마루공원,서울특별시 강북구 미아동   1357-5,2185,127.017463,37.616531,2,지진옥외대피소,3
31,서울특별시,강서구,백석어린이공원,서울특별시 강서구 등촌동   646-41,994,126.863039,37.553811,2,지진옥외대피소,3
31,서울특별시,강서구,송정초등학교 체육관,서울특별시 강서구  공항대로3길 18  (공항동),618,126.810892,37.562181,1,지진실내구호소,3
31,서울특별시,은평구,요산공원,서울특별시 은평구 불광동   13-58,805,126.932648,37.618367,2,지진옥외대피소,3
31,서울특별시,동작구,중앙대학교사범대학부속중학교,서울특별시 동작구 흑석동   86-0,3061,126.9593,37.5041,2,지진옥외대피소,3
31,서울특별시,양천구,목운중학교 운동장,서울특별시 양천구 목동   922-0,1891,126.873011,37.52699,2,지진옥외대피소,3
31,서울특별시,동대문구,대광고등학교,서울특별시 동대문구  안암로 6  (신설동),3500,127.024838,37.57818,1,지진실내구호소,3
31,서울특별시,성북구,월곡초등학교(운동장),서울특별시 성북구 장위동   246-194,1419,127.046505,37.609792,2,지진옥외대피소,3
31,서울특별시,강남구,역삼소나무공원,서울특별시 강남구 역삼동   836-21,987,127.033699,37.490979,2,지진옥외대피소,3
31,서울특별시,은평구,새록공원,서울특별시 은평구 녹번동   158-1,956,126.923647,37.604124,2,지진옥외대피소,3
31,서울특별시,송파구,일신여자중학교 운동장,서울특별시 송파구 송파동   99-2,4010,127.113485,37.501784,2,지진옥외대피소,3
31,서울특별시,성동구,중랑물재생센터,서울특별시 성동구 용답동   247-6,242880,127.062902,37.559719,2,지진옥외대피소,3
31,서울특별시,양천구,해누리체육공원,서울특별시 양천구 신정동   330-4,38240,126.872926,37.511706,2,지진옥외대피소,3
31,서울특별시,서초구,서래초등학교,서울특별시 서초구  방배로 260  (방배동),509,126.989243,37.496004,1,지진실내구호소,3
31,서울특별시,강남구,청담중학교 운동장,서울특별시 강남구 청담동   143-0,6805,없음,없음,2,지진옥외대피소,3
31,서울특별시,노원구,용동초등학교,서울특별시 노원구  한글비석로1길 81-11  (중계동),504,127.069097,37.641117,1,지진실내구호소,3
31,서울특별시,영등포구,윤중중학교 운동장,서울특별시 영등포구 여의도동   38-2,6469,126.92364,37.518643,2,지진옥외대피소,3
32,서울특별시,강서구,신월초등학교운동장,서울특별시 강서구 화곡동   1080,3300,126.839114,37.539997,2,지진옥외대피소,3
32,서울특별시,동대문구,동대문구청,서울특별시 동대문구  천호대로 145  (용두동),730,127.03992,37.574285,1,지진실내구호소,3
32,서울특별시,양천구,갈산초등학교 운동장,서울특별시 양천구 신정동   330-10,4570,126.869978,37.511835,2,지진옥외대피소,3
32,서울특별시,강북구,논골어린이공원,서울특별시 강북구 번동   417-15,858,127.028039,37.638383,2,지진옥외대피소,3
32,서울특별시,강남구,충현공원,서울특별시 강남구 역삼동   666-2,1538,127.036509,37.504759,2,지진옥외대피소,3
32,서울특별시,광진구,건국대부속중학교 운동장,서울특별시 광진구 화양동   528-0,3500,127.0822,37.54078,2,지진옥외대피소,3
32,서울특별시,성북구,광운초등학교(운동장),서울특별시 성북구 장위동   128-0,3440,127.055106,37.618957,2,지진옥외대피소,3
32,서울특별시,강서구,송화초등학교 체육관,서울특별시 강서구  방화대로34길 2  (방화동),1726,126.817541,37.5685,1,지진실내구호소,3
32,서울특별시,양천구,목운초등학교 운동장,서울특별시 양천구 목동   922-0,1680,126.873011,37.52699,2,지진옥외대피소,3
32,서울특별시,동작구,중앙대학교,서울특별시 동작구 흑석동   221-0,3322,126.957979,37.5047,2,지진옥외대피소,3
32,서울특별시,은평구,갈현초등학교 운동장,서울특별시 은평구 갈현동   451-15,5000,126.916689,37.619276,2,지진옥외대피소,3
32,서울특별시,용산구,응봉근린공원(매봉산공원),서울특별시 용산구 한남동   726-181,1200,127.003401,37.54611,2,지진옥외대피소,3
32,서울특별시,영등포구,영등포여자고등학교 운동장,서울특별시 영등포구 신길동   184-3,2800,126.915358,37.515091,2,지진옥외대피소,3
32,서울특별시,영등포구,자유어린이공원(시범아파트),서울특별시 영등포구 여의도동   50-3,5385,126.936167,37.52049,2,지진옥외대피소,3
32,서울특별시,서초구,방배초등학교,서울특별시 서초구  방배중앙로13길 26  (방배동),7518,126.98748,37.487223,1,지진실내구호소,3
32,서울특별시,강남구,경기고등학교 운동장,서울특별시 강남구 삼성동   74-4,18668,없음,없음,2,지진옥외대피소,3
32,서울특별시,송파구,잠실여자고등학교 운동장,서울특별시 송파구 송파동   99-2,7739,127.113485,37.501784,2,지진옥외대피소,3
32,서울특별시,노원구,중원초등학교,서울특별시 노원구  섬밭로 316  (중계동),1366,127.062871,37.643919,1,지진실내구호소,3
32,서울특별시,은평구,연신어린이공원,서울특별시 은평구 불광동   339-1,1236,126.925178,37.619308,2,지진옥외대피소,3
33,서울특별시,양천구,계남초등학교 운동장,서울특별시 양천구 신정동   325-7,5351,126.859999,37.510087,2,지진옥외대피소,3
33,서울특별시,동작구,서울남사초등학교,서울특별시 동작구 사당동   1011-1,3020,126.978862,37.482344,2,지진옥외대피소,3
33,서울특별시,성북구,녹지쉼터(공원),서울특별시 성북구 장위동   68-37,645,127.053035,37.612385,2,지진옥외대피소,3
33,서울특별시,영등포구,메낙골근린공원,서울특별시 영등포구 신길동   4934-4,57704,126.915492,37.506298,2,지진옥외대피소,3
33,서울특별시,강북구,수송초등학교 운동장,서울특별시 강북구 번동   456-0,1152,127.032802,37.63692,2,지진옥외대피소,3
33,서울특별시,노원구,청계초등학교,서울특별시 노원구  공릉로 431  (중계동),1801,127.065899,37.644988,1,지진실내구호소,3
33,서울특별시,서초구,신동초등학교,서울특별시 서초구  나루터로 15  (잠원동),3225,127.011894,37.516895,1,지진실내구호소,3
33,서울특별시,광진구,화양초등학교 운동장,서울특별시 광진구 화양동   12-2,1121,127.079893,37.544475,2,지진옥외대피소,3
33,서울특별시,강남구,봉은초등학교 운동장,서울특별시 강남구 삼성동   79-2,12805,없음,없음,2,지진옥외대피소,3
33,서울특별시,영등포구,자매공원,서울특별시 영등포구 여의도동   56-0,16458,126.930468,37.517469,2,지진옥외대피소,3
33,서울특별시,강남구,역삼장미공원,서울특별시 강남구 역삼동   780-25,1637,127.04481,37.495307,2,지진옥외대피소,3
33,서울특별시,은평구,연신중학교 운동장,서울특별시 은평구 불광동   400-4,5635,126.924958,37.623555,2,지진옥외대피소,3
33,서울특별시,송파구,서울석촌초등학교 운동장,서울특별시 송파구 석촌동   267,4600,127.104776,37.502551,2,지진옥외대피소,3
33,서울특별시,강서구,신정초등학교운동장,서울특별시 강서구 화곡동   869-42,19919,126.852548,37.532725,2,지진옥외대피소,3
33,서울특별시,양천구,서정초등학교 운동장,서울특별시 양천구 목동   927-5,6345,126.867174,37.523899,2,지진옥외대피소,3
33,서울특별시,용산구,한남어린이공원,서울특별시 용산구 한남동   15-5,432,127.013853,37.537231,2,지진옥외대피소,3
33,서울특별시,은평구,서갈현공원,서울특별시 은평구 갈현동   434-38,1532,126.915714,37.621515,2,지진옥외대피소,3
33,서울특별시,동대문구,용신동주민센터,서울특별시 동대문구  천호대로27길 35  (용두동),267,127.037285,37.575823,1,지진실내구호소,3
33,서울특별시,구로구,신도림중학교,서울특별시 구로구  경인로63길 74  (신도림동),828,126.885364,37.510895,1,지진실내구호소,3
34,서울특별시,강남구,봉은중학교 운동장,서울특별시 강남구 삼성동   82-7,3715,없음,없음,2,지진옥외대피소,3
34,서울특별시,성북구,장위중학교(운동장),서울특별시 성북구 장위동   231-623,3300,127.041164,37.611565,2,지진옥외대피소,3
34,서울특별시,구로구,신도림고등학교,서울특별시 구로구  경인로67길 159  (신도림동),697,126.882048,37.514242,1,지진실내구호소,3
34,서울특별시,은평구,은평고등학교 운동장,서울특별시 은평구 구산동   산41-1,1350,126.90576,37.609053,2,지진옥외대피소,3
34,서울특별시,동작구,경문고등학교,서울특별시 동작구 동작동   산4-2,6954,126.981348,37.492954,2,지진옥외대피소,3
34,서울특별시,강동구,성내1동 주민센터,서울특별시 강동구  성내로 13  (성내동),3126,127.122195,37.530529,1,지진실내구호소,3
34,서울특별시,은평구,길마공원,서울특별시 은평구 갈현동   474-1,1596,126.915878,37.614736,2,지진옥외대피소,3
34,서울특별시,양천구,갈산공원,서울특별시 양천구 신정동   163-55,2916,127.492727,37.485832,2,지진옥외대피소,3
34,서울특별시,양천구,오목공원,서울특별시 양천구 목동   921-0,21470,126.873615,37.527518,2,지진옥외대피소,3
34,서울특별시,영등포구,영남중학교 운동장,서울특별시 영등포구 대림동   735-0,2500,126.896413,37.497563,2,지진옥외대피소,3
34,서울특별시,강서구,신곡초등학교운동장,서울특별시 강서구 화곡동   476-42,3100,126.855837,37.538692,2,지진옥외대피소,3
34,서울특별시,동대문구,홍파초등학교,서울특별시 동대문구  고산자로 518  (제기동),3500,127.039386,37.58623,1,지진실내구호소,3
34,서울특별시,강남구,길섶근린공원,서울특별시 강남구 역삼동   757-1,1581,127.048846,37.497589,2,지진옥외대피소,3
34,서울특별시,강북구,번동중학교운동장,서울특별시 강북구 번동   231,3324,127.036713,37.632226,2,지진옥외대피소,3
34,서울특별시,광진구,건국대학교사범대학부속고등학교 운동장,서울특별시 광진구 화양동   528-0,5911,127.0804,37.54018,2,지진옥외대피소,3
34,서울특별시,용산구,달맞이공원,서울특별시 용산구 보광동   231-17,952,126.998079,37.527925,2,지진옥외대피소,3
34,서울특별시,서초구,신동중학교,서울특별시 서초구  나루터로 27  (잠원동),1095,127.013001,37.516337,1,지진실내구호소,3
34,서울특별시,송파구,배명고등학교 운동장,서울특별시 송파구 삼전동   172-1,17011,127.095754,37.498368,2,지진옥외대피소,3
34,서울특별시,노원구,노일초등학교,서울특별시 노원구  동일로 1625  (상계동),1573,127.054614,37.67269,1,지진실내구호소,3
34,서울특별시,영등포구,여의도고등학교,서울특별시 영등포구 여의도동   30-1,6390,126.933793,37.524809,2,지진옥외대피소,3
35,서울특별시,송파구,서울삼전초등학교 운동장,서울특별시 송파구 삼전동   63,4500,127.092589,37.501442,2,지진옥외대피소,3
35,서울특별시,성북구,석계초등학교(운동장),서울특별시 성북구 석관동   27-3,3300,127.069765,37.608609,2,지진옥외대피소,3
35,서울특별시,영등포구,여의도중학교 운동장,서울특별시 영등포구 여의도동   40-1,3600,126.935564,37.52357,2,지진옥외대피소,3
35,서울특별시,노원구,상계중학교,서울특별시 노원구  노원로 398  (상계동),672,127.06858,37.652699,1,지진실내구호소,3
35,서울특별시,서초구,잠원초등학교,서울특별시 서초구  신반포로16길 15-25  (반포동),887,126.998097,37.501535,1,지진실내구호소,3
35,서울특별시,강서구,화원중학교운동장,서울특별시 강서구 화곡동   351-94,1650,126.842416,37.536685,2,지진옥외대피소,3
35,서울특별시,성동구,무학봉 근린공원,서울특별시 성동구 하왕십리동   890-243,28843,127.025997,37.562428,2,지진옥외대피소,3
35,서울특별시,양천구,진명여자고등학교 운동장,서울특별시 양천구 목동   927-6,5200,126.86614,37.523798,2,지진옥외대피소,3
35,서울특별시,구로구,구로초등학교,서울특별시 구로구  구로중앙로27나길 21  (구로동),2886,126.886063,37.496888,1,지진실내구호소,3
35,서울특별시,용산구,서빙고초등학교 운동장,서울특별시 용산구 서빙고동   235-1,7720,126.991887,37.521466,2,지진옥외대피소,3
35,서울특별시,동대문구,성일중학교,서울특별시 동대문구  왕산로23길 55  (제기동),2235,127.033687,37.580844,1,지진실내구호소,3
35,서울특별시,양천구,목동고등학교 운동장,서울특별시 양천구 신정동   325-8,4380,126.860747,37.509073,2,지진옥외대피소,3
35,서울특별시,은평구,서울대은초등학교 운동장,서울특별시 은평구 대조동   82-5,3127,126.925821,37.612128,2,지진옥외대피소,3
35,서울특별시,은평구,물빛공원,서울특별시 은평구 갈현동   389-15,2051,126.920729,37.61898,2,지진옥외대피소,3
35,서울특별시,영등포구,신대림초등학교 운동장,서울특별시 영등포구 대림동   970-1,663,126.905685,37.491751,2,지진옥외대피소,3
35,서울특별시,강남구,강남구보건소 주차장,서울특별시 강남구 삼성동   8-0,1097,없음,없음,2,지진옥외대피소,3
35,서울특별시,중랑구,원묵중학교,서울특별시 중랑구 묵동   12-0,5800,127.08403,37.617831,2,지진옥외대피소,3
35,서울특별시,강동구,강동 어린이 회관,서울특별시 강동구  성내로 6  (성내동),471,127.12244,37.529375,1,지진실내구호소,3
35,서울특별시,강남구,역삼까치공원,서울특별시 강남구 역삼동   824-10,987,127.030765,37.497243,2,지진옥외대피소,3
35,서울특별시,동작구,동작중학교,서울특별시 동작구 동작동   59-1,4382,126.9751,37.4954,2,지진옥외대피소,3
35,서울특별시,종로구,경기상업고등학교,서울특별시 종로구 청운동   89-3,1785,126.96962,37.588825,2,지진옥외대피소,3
36,서울특별시,강남구,강남구청 주차장,서울특별시 강남구 삼성동   16-1,5176,없음,없음,2,지진옥외대피소,3
36,서울특별시,동작구,서울동작초등학교,서울특별시 동작구 사당동   산9-1,3281,126.9748,37.4939,2,지진옥외대피소,3
36,서울특별시,강서구,염경초등학교운동장,서울특별시 강서구 염창동   79-0,12000,126.871199,37.555133,2,지진옥외대피소,3
36,서울특별시,구로구,동구로초등학교,서울특별시 구로구  구로중앙로14길 43  (구로동),650,126.892536,37.494815,1,지진실내구호소,3
36,서울특별시,마포구,서교어린이공원,서울특별시 마포구 서교동   391-1,1761,126.915479,37.551974,2,지진옥외대피소,3
36,서울특별시,강동구,성내중학교,서울특별시 강동구  성안로 7  (성내동),1059,127.128884,37.524542,1,지진실내구호소,3
36,서울특별시,종로구,청운중학교,서울특별시 종로구 청운동   89-142,9467,126.970993,37.588825,2,지진옥외대피소,3
36,서울특별시,성동구,꽃재 어린이공원,서울특별시 성동구 하왕십리동   560,2900,127.028284,37.567574,2,지진옥외대피소,3
36,서울특별시,송파구,배명중학교 운동장,서울특별시 송파구 삼전동   172-1,17327,127.095754,37.498368,2,지진옥외대피소,3
36,서울특별시,중랑구,원묵고등학교운동장,서울특별시 중랑구 묵동   23-0,2980,127.086156,37.615411,2,지진옥외대피소,3
36,서울특별시,영등포구,대동초등학교 운동장,서울특별시 영등포구 대림동   702-0,2640,126.900105,37.49328,2,지진옥외대피소,3
36,서울특별시,은평구,좌월공원,서울특별시 은평구 갈현동   513-1,1398,126.913328,37.617329,2,지진옥외대피소,3
36,서울특별시,노원구,신상계초등학교,서울특별시 노원구  상계로 267  (상계동),887,127.075774,37.668019,1,지진실내구호소,3
36,서울특별시,영등포구,당산근린공원,서울특별시 영등포구 당산동3가   385-0,11155,126.895772,37.525596,2,지진옥외대피소,3
36,서울특별시,동작구,서울공업고등학교,서울특별시 동작구  대방동1길 46  (대방동),1011,126.922383,37.501597,1,지진실내구호소,3
36,서울특별시,노원구,신상중학교 운동장,서울특별시 노원구 상계동   754-4,4220,127.063276,37.651628,2,지진옥외대피소,3
36,서울특별시,동대문구,제기동주민센터,서울특별시 동대문구  약령시로 71  (제기동),150,127.037825,37.583171,1,지진실내구호소,3
36,서울특별시,강서구,우장초등학교운동장,서울특별시 강서구 화곡동   18-5,2145,126.846285,37.549079,2,지진옥외대피소,3
36,서울특별시,용산구,한강중학교,서울특별시 용산구 서빙고동   4-1,8720,126.992335,37.52396,2,지진옥외대피소,3
36,서울특별시,강남구,역삼은행나무공원,서울특별시 강남구 역삼동   611-0,1647,127.031004,37.505497,2,지진옥외대피소,3
36,서울특별시,성북구,석관고등학교(운동장),서울특별시 성북구 석관동   77-1,7000,127.06657,37.609228,2,지진옥외대피소,3
37,서울특별시,동작구,서울남성초등학교,서울특별시 동작구 사당동   324-18,3478,126.975809,37.48461,2,지진옥외대피소,3
37,서울특별시,중랑구,원묵초등학교,서울특별시 중랑구 묵동   11-0,3815,127.086047,37.617652,2,지진옥외대피소,3
37,서울특별시,영등포구,당서초등학교 운동장,서울특별시 영등포구 당산동5가   5-3,6282,126.899486,37.531678,2,지진옥외대피소,3
37,서울특별시,강남구,대청중학교 운동장,서울특별시 강남구 대치동   502-0,8336,없음,없음,2,지진옥외대피소,3
37,서울특별시,성동구,무학초등학교 운동장,서울특별시 성동구 하왕십리동   950-1,3799,127.029585,37.562962,2,지진옥외대피소,3
37,서울특별시,성북구,조선왕릉(의릉)-주차장,서울특별시 성북구 석관동   333-1,1338,127.058306,37.604631,2,지진옥외대피소,3
37,서울특별시,마포구,홍익어린이공원,서울특별시 마포구 서교동   359-0,2230,126.923371,37.552246,2,지진옥외대피소,3
37,서울특별시,노원구,당현초등학교 운동장,서울특별시 노원구 상계동   742-0,3580,127.058364,37.648799,2,지진옥외대피소,3
37,서울특별시,강서구,능안공원,서울특별시 강서구 등촌동   517-1,854,126.859895,37.546599,2,지진옥외대피소,3
37,서울특별시,강남구,언주근린공원,서울특별시 강남구 역삼동   754-7,1111,127.047618,37.498694,2,지진옥외대피소,3
37,서울특별시,노원구,신상중학교,서울특별시 노원구  동일로216길 42  (상계동),948,127.063875,37.651682,1,지진실내구호소,3
37,서울특별시,강동구,서울제일교회,서울특별시 강동구  강동대로53길 53  (성내동),679,127.132174,37.525277,1,지진실내구호소,3
37,서울특별시,종로구,청운중학교,서울특별시 종로구  창의문로 51  (청운동),1915,126.97097,37.58909,1,지진실내구호소,3
37,서울특별시,송파구,개롱공원,서울특별시 송파구 가락동   195,21544,127.130915,37.493701,2,지진옥외대피소,3
37,서울특별시,성동구,왕십리 문화공원,서울특별시 성동구 도선동   35-2,1315,127.035331,37.561701,2,지진옥외대피소,3
37,서울특별시,동대문구,전농초등학교,서울특별시 동대문구  사가정로 66  (전농동),977,127.054553,37.574881,1,지진실내구호소,3
37,서울특별시,구로구,구일고등학교,서울특별시 구로구  구일로 90-51  (구로동),3042,126.878275,37.494012,1,지진실내구호소,3
37,서울특별시,동작구,영등포중학교,서울특별시 동작구  등용로8길 5  (대방동),1343,126.9317,37.5081,1,지진실내구호소,3
37,서울특별시,영등포구,도신초등학교 운동장,서울특별시 영등포구 대림동   741-3,360,126.90076,37.49861,2,지진옥외대피소,3
37,서울특별시,종로구,경복고등학교,서울특별시 종로구 청운동   89-9,2400,126.971412,37.581718,2,지진옥외대피소,3
37,서울특별시,강서구,월정초등학교운동장,서울특별시 강서구 화곡동   374-1,5768,126.836305,37.534433,2,지진옥외대피소,3
37,서울특별시,은평구,궁말공원,서울특별시 은평구 갈현동   327-21,1190,126.908972,37.616891,2,지진옥외대피소,3
38,서울특별시,송파구,서울신가초등학교 운동장,서울특별시 송파구 가락동   43-1,3969,127.120097,37.500007,2,지진옥외대피소,3
38,서울특별시,강서구,우장초등학교 강당,서울특별시 강서구  화곡로 263  (화곡동),2145,126.846285,37.549079,1,지진실내구호소,3
38,서울특별시,종로구,서울농학교,서울특별시 종로구 신교동   1-1,4620,126.968505,37.584774,2,지진옥외대피소,3
38,서울특별시,강남구,대치초등학교 운동장,서울특별시 강남구 대치동   505-0,13435,없음,없음,2,지진옥외대피소,3
38,서울특별시,영등포구,영림초등학교 운동장,서울특별시 영등포구 대림동   993-16,567,126.902924,37.487166,2,지진옥외대피소,3
38,서울특별시,은평구,앵봉산주민쉼터,서울특별시 은평구 갈현동   산49-22,500,126.912285,37.624427,2,지진옥외대피소,3
38,서울특별시,노원구,수암초등학교 운동장,서울특별시 노원구 중계동   67-0,2700,127.081305,37.648481,2,지진옥외대피소,3
38,서울특별시,동대문구,전곡초등학교,서울특별시 동대문구  전농로 172  (전농동),3500,127.056494,37.580459,1,지진실내구호소,3
38,서울특별시,노원구,노원중학교,서울특별시 노원구  동일로213길 26  (상계동),658,127.059304,37.649133,1,지진실내구호소,3
38,서울특별시,강남구,포이초등학교 운동장,서울특별시 강남구 개포동   1273-0,12279,127.052795,37.475658,2,지진옥외대피소,3
38,서울특별시,영등포구,당산서중학교 운동장,서울특별시 영등포구 당산동5가   5-0,3600,126.898606,37.531944,2,지진옥외대피소,3
38,서울특별시,성동구,숭신초등학교 운동장,서울특별시 성동구 하왕십리동   1068,434,127.027769,37.567772,2,지진옥외대피소,3
38,서울특별시,마포구,윗잔다리 어린이공원,서울특별시 마포구 동교동   168-1,3251,126.926101,37.557189,2,지진옥외대피소,3
38,서울특별시,강서구,원당근린공원,서울특별시 강서구 등촌동   690-5,10096,126.842024,37.559757,2,지진옥외대피소,3
38,서울특별시,성동구,동마중학교 운동장,서울특별시 성동구 마장동   405-45,3105,127.039712,37.562685,2,지진옥외대피소,3
38,서울특별시,종로구,경복고등학교,서울특별시 종로구  자하문로28가길 9  (청운동),9044,126.972431,37.587329,1,지진실내구호소,3
38,서울특별시,동작구,서울삼일초등학교,서울특별시 동작구 사당동   105-23,1815,126.9751,37.4883,2,지진옥외대피소,3
38,서울특별시,강서구,까치공원,서울특별시 강서구 화곡동   354-14,1164,126.841894,37.533391,2,지진옥외대피소,3
38,서울특별시,동작구,서울영화초등학교,서울특별시 동작구  등용로8길 3  (대방동),772,126.9337,37.5084,1,지진실내구호소,3
38,서울특별시,중랑구,태릉고등학교,서울특별시 중랑구 묵동   6-0,4760,127.085274,37.619019,2,지진옥외대피소,3
38,서울특별시,성북구,석관중학교(운동장),서울특별시 성북구 석관동   88-2,3393,127.066521,37.607804,2,지진옥외대피소,3
38,서울특별시,강동구,천호초등학교 체육관,서울특별시 강동구  구천면로 310-11  (천호동),1460,127.136443,37.547308,1,지진실내구호소,3
39,서울특별시,강서구,미리내공원,서울특별시 강서구 화곡동   1008-32,968,126.834749,37.547653,2,지진옥외대피소,3
39,서울특별시,영등포구,영동초등학교 운동장,서울특별시 영등포구 당산동   121-22,2193,126.907156,37.526577,2,지진옥외대피소,3
39,서울특별시,강남구,대진초등학교 운동장,서울특별시 강남구 개포동   13-0,6555,127.078057,37.496437,2,지진옥외대피소,3
39,서울특별시,마포구,성산초등학교 운동장,서울특별시 마포구 합정동   427-2,9031,126.911083,37.553334,2,지진옥외대피소,3
39,서울특별시,동작구,강남중학교,서울특별시 동작구  대방동15길 29  (대방동),593,126.9201,37.5022,1,지진실내구호소,3
39,서울특별시,중랑구,태릉중학교운동장,서울특별시 중랑구 묵동   121-278,4870,127.083027,37.6125,2,지진옥외대피소,3
39,서울특별시,동대문구,전동초등학교,서울특별시 동대문구  전농로16길 61  (전농동),3500,127.061189,37.5791,1,지진실내구호소,3
39,서울특별시,노원구,불암고등학교 운동장,서울특별시 노원구 중계동   364-10,3220,127.079959,37.649128,2,지진옥외대피소,3
39,서울특별시,은평구,갈곡리공원,서울특별시 은평구 갈현동   436-51,1739,126.916422,37.623988,2,지진옥외대피소,3
39,서울특별시,영등포구,신영초등학교 운동장,서울특별시 영등포구 대림동   781-0,552,126.896069,37.50035,2,지진옥외대피소,3
39,서울특별시,강남구,대곡초등학교 운동장,서울특별시 강남구 대치동   510-0,7805,없음,없음,2,지진옥외대피소,3
39,서울특별시,강동구,천호초등학교,서울특별시 강동구  구천면로 310-11  (천호동),12282,127.136443,37.547308,1,지진실내구호소,3
39,서울특별시,송파구,서울가동초등학교 운동장,서울특별시 송파구 가락동   163,5250,127.130388,37.497142,2,지진옥외대피소,3
39,서울특별시,양천구,강신초등학교 교사시설,서울특별시 양천구  월정로 280  (신월동),2640,126.829448,37.542539,1,지진실내구호소,3
39,서울특별시,종로구,매동초등학교,서울특별시 종로구 필운동   32-0,2800,126.966852,37.577191,2,지진옥외대피소,3
39,서울특별시,성동구,성동종합사회복지관 복지관 주차장,서울특별시 성동구 마장동   527-2,618,127.033907,37.570535,2,지진옥외대피소,3
39,서울특별시,노원구,상수초등학교,서울특별시 노원구  동일로216길 66  (상계동),570,127.064412,37.651844,1,지진실내구호소,3
39,서울특별시,강서구,서낭당근린공원,서울특별시 강서구 등촌동   706-0,10249,126.849963,37.558526,2,지진옥외대피소,3
39,서울특별시,성동구,도선고등학교 운동장,서울특별시 성동구 하왕십리동   533-0,2730,127.026743,37.567033,2,지진옥외대피소,3
39,서울특별시,강동구,둔촌고등학교(운동장),서울특별시 강동구 둔촌동   79-3,1734,127.144596,37.530875,2,지진옥외대피소,3
39,서울특별시,성북구,석관초등학교(운동장),서울특별시 성북구 석관동   205-0,2500,127.058995,37.61081,2,지진옥외대피소,3
39,서울특별시,동작구,사당중학교,서울특별시 동작구 사당동   209-16,2635,126.9689,37.4879,2,지진옥외대피소,3
40,서울특별시,영등포구,대림중학교 운동장,서울특별시 영등포구 대림동   959-0,711,126.907639,37.492143,2,지진옥외대피소,3
40,서울특별시,강남구,개포초등학교 운동장,서울특별시 강남구 개포동   188-0,6580,127.070831,37.486599,2,지진옥외대피소,3
40,서울특별시,강동구,동신중학교,서울특별시 강동구  진황도로 72  (천호동),12134,127.134476,37.536743,1,지진실내구호소,3
40,서울특별시,양천구,신월5동주민센터,서울특별시 양천구  화곡로4길 10  (신월동),332,126.827202,37.538895,1,지진실내구호소,3
40,서울특별시,동대문구,전일중학교,서울특별시 동대문구  사가정로13길 67  (전농동),1191,127.058519,37.581837,1,지진실내구호소,3
40,서울특별시,성동구,거주자우선주차장(사근동),서울특별시 성동구 사근동   282-2,830,127.047297,37.564656,2,지진옥외대피소,3
40,서울특별시,노원구,상천초등학교,서울특별시 노원구  덕릉로 443  (상계동),2003,127.058393,37.646393,1,지진실내구호소,3
40,서울특별시,강북구,하늘어린이공원,서울특별시 강북구 미아동   791-3853,3367,127.010933,37.624405,2,지진옥외대피소,3
40,서울특별시,송파구,서울가주초등학교 운동장,서울특별시 송파구 가락동   140-6,4238,127.129262,37.496638,2,지진옥외대피소,3
40,서울특별시,동작구,서울신길초등학교,서울특별시 동작구  알마타길 16  (대방동),351,126.9266,37.5104,1,지진실내구호소,3
40,서울특별시,성동구,도선어린이 공원,서울특별시 성동구 홍익동   369-0,2332,127.03166,37.565481,2,지진옥외대피소,3
40,서울특별시,노원구,을지초등학교 운동장,서울특별시 노원구 중계동   360-0,2910,127.072973,37.650863,2,지진옥외대피소,3
40,서울특별시,은평구,박석공원,서울특별시 은평구 갈현동   416-3,857,126.918522,37.625142,2,지진옥외대피소,3
40,서울특별시,강남구,휘문중학교 운동장,서울특별시 강남구 대치동   952-1,32455,127.061858,37.505401,2,지진옥외대피소,3
40,서울특별시,중랑구,신묵초등학교운동장,서울특별시 중랑구 묵동   246-12,4600,127.075552,37.60717,2,지진옥외대피소,3
40,서울특별시,동작구,남성중학교,서울특별시 동작구 사당동   304-45,2786,126.972489,37.478825,2,지진옥외대피소,3
40,서울특별시,영등포구,서울당산중학교 운동장,서울특별시 영등포구 당산동   121-0,5220,126.907408,37.531882,2,지진옥외대피소,3
40,서울특별시,강서구,등촌근린공원,서울특별시 강서구 등촌동   687-4,10052,126.841791,37.56337,2,지진옥외대피소,3
40,서울특별시,강서구,달빛공원,서울특별시 강서구 화곡동   783-1,976,126.862917,37.531143,2,지진옥외대피소,3
40,서울특별시,마포구,성산중학교 운동장 ,서울특별시 마포구 합정동   365-1,9853,126.915898,37.54718,2,지진옥외대피소,3
40,서울특별시,종로구,사직공원,서울특별시 종로구 사직동   1-28,55215,126.967572,37.575771,2,지진옥외대피소,3
40,서울특별시,강동구,둔촌중학교(운동장),서울특별시 강동구 둔촌동   19-1,1226,127.146489,37.530632,2,지진옥외대피소,3
41,서울특별시,노원구,온곡초등학교,서울특별시 노원구  한글비석로52길 59  (상계동),770,127.065596,37.667637,1,지진실내구호소,3
41,서울특별시,동작구,대방동주민센터,서울특별시 동작구  여의대방로44길 20  (대방동),231,126.926254,37.508174,1,지진실내구호소,3
41,서울특별시,노원구,을지중학교 운동장,서울특별시 노원구 중계동   360-19,2950,127.071752,37.649474,2,지진옥외대피소,3
41,서울특별시,성동구,성동구보건소 주차장,서울특별시 성동구 홍익동   16-15,570,127.032972,37.567006,2,지진옥외대피소,3
41,서울특별시,마포구,양화어린이공원,서울특별시 마포구 합정동   394-1,1388,126.908368,37.550293,2,지진옥외대피소,3
41,서울특별시,강서구,솔뫼공원,서울특별시 강서구 화곡동   379-32,1982,126.83859,37.537956,2,지진옥외대피소,3
41,서울특별시,중랑구,묵현초등학교운동장,서울특별시 중랑구 묵동   242-55,12938,127.073652,37.608984,2,지진옥외대피소,3
41,서울특별시,서초구,우솔초등학교,서울특별시 서초구 우면동   774-0,1587,없음,없음,2,지진옥외대피소,3
41,서울특별시,강동구,일자산 공원 중앙광장,서울특별시 강동구 둔촌동   산140-0,713416,127.536111,37.536111,2,지진옥외대피소,3
41,서울특별시,강서구,모태공원,서울특별시 강서구 화곡동   892-17,1003,126.849511,37.529453,2,지진옥외대피소,3
41,서울특별시,강동구,성내도서관,서울특별시 강동구  성안로 106-1  (성내동),1032,127.133343,37.532858,1,지진실내구호소,3
41,서울특별시,성동구,왕십리 광장,서울특별시 성동구 행당동   192-3,1315,127.036992,37.561562,2,지진옥외대피소,3
41,서울특별시,동대문구,배봉초등학교,서울특별시 동대문구  사가정로 193  (전농동),1287,127.066784,37.580122,1,지진실내구호소,3
41,서울특별시,영등포구,신우어린이공원,서울특별시 영등포구 대림동   657-0,3112,126.899246,37.503165,2,지진옥외대피소,3
41,서울특별시,종로구,삼청공원,서울특별시 종로구 삼청동   산2-1,378440,126.980345,37.589404,2,지진옥외대피소,3
41,서울특별시,은평구,구산초등학교 운동장,서울특별시 은평구 구산동   145-2,8588,126.909494,37.612637,2,지진옥외대피소,3
41,서울특별시,송파구,석촌중학교 운동장,서울특별시 송파구 가락동   43,7303,127.121311,37.500721,2,지진옥외대피소,3
41,서울특별시,양천구,신월6동주민센터,서울특별시 양천구  남부순환로 609  (신월동),397,126.843625,37.516328,1,지진실내구호소,3
41,서울특별시,강북구,늘푸른공원,서울특별시 강북구 미아동   797-9,646,127.017428,37.625374,2,지진옥외대피소,3
41,서울특별시,동작구,서울신남성초등학교,서울특별시 동작구 사당동   199-1,3969,126.965405,37.488509,2,지진옥외대피소,3
41,서울특별시,영등포구,도림동 유수지 ,서울특별시 영등포구 도림동   254-0,12105,126.897533,37.506573,2,지진옥외대피소,3
41,서울특별시,강남구,개포서근린공원,서울특별시 강남구 개포동   180-0,11219,127.063797,37.488824,2,지진옥외대피소,3
42,서울특별시,노원구,상곡초등학교,서울특별시 노원구  노원로38길 34  (상계동),914,127.062281,37.662731,1,지진실내구호소,3
42,서울특별시,송파구,송파중학교 운동장,서울특별시 송파구 가락동   139,12295,127.129915,37.495633,2,지진옥외대피소,3
42,서울특별시,동작구,동작고등학교,서울특별시 동작구 사당동   236-5,3470,126.965108,37.482611,2,지진옥외대피소,3
42,서울특별시,성동구,행당중학교 운동장,서울특별시 성동구 행당동   66-3,10048,127.042631,37.555536,2,지진옥외대피소,3
42,서울특별시,노원구,서라벌고등학교운동장,서울특별시 노원구 중계동   313-0,5010,127.075824,37.645218,2,지진옥외대피소,3
42,서울특별시,강북구,청암어린이공원,서울특별시 강북구 미아동   776-17,661,127.014942,37.624088,2,지진옥외대피소,3
42,서울특별시,동작구,서울문창초등학교,서울특별시 동작구  신대방2길 14  (신대방동),1014,126.913912,37.488915,1,지진실내구호소,3
42,서울특별시,영등포구,원지어린이공원,서울특별시 영등포구 대림동   690-0,4845,126.89951,37.497773,2,지진옥외대피소,3
42,서울특별시,성동구,동명초등학교 운동장,서울특별시 성동구 마장동   560-0,4256,127.035843,37.568424,2,지진옥외대피소,3
42,서울특별시,강서구,큰별공원,서울특별시 강서구 화곡동   46-41,1067,126.848945,37.544438,2,지진옥외대피소,3
42,서울특별시,중랑구,동원초등학교운동장,서울특별시 중랑구 망우동   216,3300,127.104967,37.604908,2,지진옥외대피소,3
42,서울특별시,동대문구,전농2동주민센터,서울특별시 동대문구  사가정로 137  (전농동),129,127.060046,37.578074,1,지진실내구호소,3
42,서울특별시,마포구,양화진역사공원,서울특별시 마포구 합정동   139-21,4804,126.911107,37.545679,2,지진옥외대피소,3
42,서울특별시,강서구,골말공원,서울특별시 강서구 화곡동   865-1,978,126.856127,37.533213,2,지진옥외대피소,3
42,서울특별시,종로구,덕성여자중학교,서울특별시 종로구 송현동   34-0,6701,126.981778,37.57777,2,지진옥외대피소,3
42,서울특별시,강동구,천동초등학교 운동장,서울특별시 강동구 길동   371-1,254,127.137569,37.540576,2,지진옥외대피소,3
42,서울특별시,강동구,명원초등학교,서울특별시 강동구  명일로 364  (명일동),650,127.150332,37.551301,1,지진실내구호소,3
42,서울특별시,강남구,한마음공원,서울특별시 강남구 개포동   12-3,2488,127.075894,37.495786,2,지진옥외대피소,3
42,서울특별시,은평구,은평중학교  운동장,서울특별시 은평구 구산동   182-44,6612,126.909135,37.610744,2,지진옥외대피소,3
42,서울특별시,서초구,언남고등학교,서울특별시 서초구 양재동   309-0,6087,없음,없음,2,지진옥외대피소,3
42,서울특별시,양천구,신서중학교 체육관,서울특별시 양천구  중앙로 206  (신정동),860,126.856161,37.515658,1,지진실내구호소,3
42,서울특별시,영등포구,고추말어린이공원,서울특별시 영등포구 도림동   23-1,3071,126.907037,37.511644,2,지진옥외대피소,3
43,서울특별시,강남구,청담초등학교 운동장,서울특별시 강남구 청담동   142-0,7777,127.045288,37.527947,2,지진옥외대피소,3
43,서울특별시,강동구,서울컨벤션고등학교,서울특별시 강동구  동남로 968  (고덕동),14629,127.15821,37.560001,1,지진실내구호소,3
43,서울특별시,강서구,호돌이공원,서울특별시 강서구 화곡동   906-26,812,126.846027,37.528192,2,지진옥외대피소,3
43,서울특별시,양천구,양목초등학교,서울특별시 양천구  목동로11길 30  (신정동),658,126.86123,37.52369,1,지진실내구호소,3
43,서울특별시,마포구,한마음어린이공원,서울특별시 마포구 망원동   381-1,770,126.907962,37.554746,2,지진옥외대피소,3
43,서울특별시,성동구,한양광장,서울특별시 성동구 행당동   20-2,2386,127.040191,37.557953,2,지진옥외대피소,3
43,서울특별시,중랑구,망우초등학교운동장,서울특별시 중랑구 망우동   153-1,2350,127.103434,37.59833,2,지진옥외대피소,3
43,서울특별시,서초구,언남중학교,서울특별시 서초구 양재동   310-0,10523,없음,없음,2,지진옥외대피소,3
43,서울특별시,영등포구,두암어린이공원,서울특별시 영등포구 대림동   715-0,1477.8,126.897371,37.495501,2,지진옥외대피소,3
43,서울특별시,종로구,상명대학교사범대학부속여자중고등학교,서울특별시 종로구 홍지동   56-0,10746,126.953789,37.603563,2,지진옥외대피소,3
43,서울특별시,은평구,구산중학교 운동장,서울특별시 은평구 구산동   182-45,4680,126.908997,37.609339,2,지진옥외대피소,3
43,서울특별시,강북구,오패어린이공원,서울특별시 강북구 미아동   258-236,1084,127.030109,37.622281,2,지진옥외대피소,3
43,서울특별시,송파구,서울평화초등학교 운동장,서울특별시 송파구 가락동   106,7366,127.12238,37.49138,2,지진옥외대피소,3
43,서울특별시,강동구,신명중학교(운동장),서울특별시 강동구 길동   42-0,1848,127.14995,37.54094,2,지진옥외대피소,3
43,서울특별시,은평구,은평초등학교 강당,서울특별시 은평구  은평로 239  (녹번동),983.5,126.934431,37.601795,1,지진실내구호소,3
43,서울특별시,노원구,중계초등학교 운동장,서울특별시 노원구 중계동   449-2,4030,127.072721,37.657687,2,지진옥외대피소,3
43,서울특별시,성동구,마장중학교 운동장,서울특별시 성동구 마장동   766-49,3280,127.042183,37.56789,2,지진옥외대피소,3
43,서울특별시,동대문구,동대문중학교,서울특별시 동대문구  사가정로 59  (전농동),3500,127.052259,37.574643,1,지진실내구호소,3
43,서울특별시,강서구,하마터공원,서울특별시 강서구 화곡동   883-3,1027,126.853738,37.530076,2,지진옥외대피소,3
43,서울특별시,동작구,수도여자고등학교,서울특별시 동작구  여의대방로10길 73  (신대방동),202,126.915514,37.493069,1,지진실내구호소,3
43,서울특별시,동작구,상도중학교,서울특별시 동작구 사당동   181-20,5015,126.9615,37.4903,2,지진옥외대피소,3
44,서울특별시,송파구,가원중학교 운동장,서울특별시 송파구 가락동   106-3,8151,127.122874,37.490796,2,지진옥외대피소,3
44,서울특별시,동대문구,답십리초등학교,서울특별시 동대문구  전농로3길 23  (답십리동),3500,127.055423,37.568992,1,지진실내구호소,3
44,서울특별시,마포구,망원숲공원,서울특별시 마포구 망원동   460-5,1100,126.89968,37.553839,2,지진옥외대피소,3
44,서울특별시,중랑구,봉화중학교운동장,서울특별시 중랑구 망우동   122-1,2946,127.103952,37.596236,2,지진옥외대피소,3
44,서울특별시,서초구,동산어린이공원,서울특별시 서초구 양재동   376-3,1890,없음,없음,2,지진옥외대피소,3
44,서울특별시,은평구,동명여자고등학교 운동장,서울특별시 은평구 대조동   91-20,7721,126.924528,37.614365,2,지진옥외대피소,3
44,서울특별시,동작구,서울대림초등학교,서울특별시 동작구 대방동   391-62,2514,126.925733,37.500648,2,지진옥외대피소,3
44,서울특별시,노원구,중계중학교 운동장,서울특별시 노원구 중계동   358-3,4170,127.075046,37.655479,2,지진옥외대피소,3
44,서울특별시,성동구,동마장 공원,서울특별시 성동구 마장동   780-1,1090,127.045787,37.566051,2,지진옥외대피소,3
44,서울특별시,강동구,신명초등학교운동장,서울특별시 강동구 길동   42-0,1006,127.149849,37.540824,2,지진옥외대피소,3
44,서울특별시,강서구,바탕골공원,서울특별시 강서구 화곡동   1016-34,977,126.83471,37.544546,2,지진옥외대피소,3
44,서울특별시,강동구,고덕중학교,서울특별시 강동구  동남로82길 94  (고덕동),2048,127.161297,37.559984,1,지진실내구호소,3
44,서울특별시,강남구,청수근린공원,서울특별시 강남구 청담동   134-13,17402,127.058419,37.523298,2,지진옥외대피소,3
44,서울특별시,양천구,목일중학교,서울특별시 양천구  목동동로8길 70  (신정동),605,126.874308,37.513309,1,지진실내구호소,3
44,서울특별시,강서구,연지공원,서울특별시 강서구 화곡동   1109,629,126.853261,37.554668,2,지진옥외대피소,3
44,서울특별시,동작구,서울보라매초등학교,서울특별시 동작구  여의대방로16길 30  (신대방동),1092,126.916,37.4958,1,지진실내구호소,3
44,서울특별시,영등포구,대림3동 유수지,서울특별시 영등포구 대림동   611-0,11450,126.895068,37.504197,2,지진옥외대피소,3
44,서울특별시,강북구,미래공원,서울특별시 강북구 미아동   791-1712,564,127.012388,37.62458,2,지진옥외대피소,3
44,서울특별시,은평구,역촌동 주민센터,서울특별시 은평구  연서로 59  (역촌동),425,126.915198,37.604448,1,지진실내구호소,3
44,서울특별시,성동구,무지개 텃밭,서울특별시 성동구 행당동   76-3,8100,127.040808,37.553797,2,지진옥외대피소,3
45,서울특별시,강남구,현대고등학교 운동장,서울특별시 강남구 압구정동   425-0,12230,없음,없음,2,지진옥외대피소,3
45,서울특별시,강동구,동북고등학교(운동장),서울특별시 강동구 둔촌동   180-2,12000,127.141313,37.519963,2,지진옥외대피소,3
45,서울특별시,동작구,영등포고등학교,서울특별시 동작구 대방동   13-2,7725,126.933666,37.508253,2,지진옥외대피소,3
45,서울특별시,강북구,벽오산어린이공원,서울특별시 강북구 미아동   258-56,1250,127.030239,37.627591,2,지진옥외대피소,3
45,서울특별시,송파구,문정중학교 운동장,서울특별시 송파구 문정동   12-1,9239,127.129658,37.488187,2,지진옥외대피소,3
45,서울특별시,양천구,신서초등학교 체육관,서울특별시 양천구  목동서로10길 35  (신정동),793,126.862415,37.520276,1,지진실내구호소,3
45,서울특별시,은평구,서울대조초등학교 운동장,서울특별시 은평구 대조동   212-1,4060,126.91961,37.612969,2,지진옥외대피소,3
45,서울특별시,강서구,백연공원,서울특별시 강서구 화곡동   980-2,1107,126.851897,37.55066,2,지진옥외대피소,3
45,서울특별시,강남구,청담목련공원,서울특별시 강남구 청담동   51-0,1642,127.049947,37.522957,2,지진옥외대피소,3
45,서울특별시,영등포구,대림어린이공원,서울특별시 영등포구 대림동   869-2,6969,126.903624,37.491357,2,지진옥외대피소,3
45,서울특별시,마포구,동교초등학교 운동장,서울특별시 마포구 망원동   426-5,4106,126.902668,37.558295,2,지진옥외대피소,3
45,서울특별시,성동구,마장초등학교 운동장,서울특별시 성동구 마장동   766-49,2064,127.042183,37.56789,2,지진옥외대피소,3
45,서울특별시,중랑구,영란여자중학교운동장,서울특별시 중랑구 망우동   220-0,5445,127.104484,37.603443,2,지진옥외대피소,3
45,서울특별시,성동구,응봉동둔치 체육공원,서울특별시 성동구 응봉동   9-5,34800,127.037714,37.552212,2,지진옥외대피소,3
45,서울특별시,강동구,명덕초교,서울특별시 강동구  양재대로156길 11  (고덕동),1028,127.146008,37.556897,1,지진실내구호소,3
45,서울특별시,동작구,동작구민체육센터,서울특별시 동작구  여의대방로16길 53  (신대방동),701,126.916805,37.494779,1,지진실내구호소,3
45,서울특별시,동대문구,숭인중학교,서울특별시 동대문구  천호대로47길 34  (답십리동),3500,127.043835,37.573784,1,지진실내구호소,3
45,서울특별시,양천구,신목초등학교 운동장,서울특별시 양천구 신정동   281-2,2529,126.872685,37.516923,2,지진옥외대피소,3
45,서울특별시,노원구,재현중학교 운동장,서울특별시 노원구 중계동   129-2,2050,127.080045,37.659771,2,지진옥외대피소,3
45,서울특별시,은평구,서울 수리초등학교 본관동,서울특별시 은평구  불광로14길 10-10  (불광동),11537,126.934043,37.620325,1,지진실내구호소,3
46,서울특별시,관악구,난향초등학교,서울특별시 관악구  난향길 9  (신림동),168,126.917891,37.462102,1,지진실내구호소,3
46,서울특별시,양천구,신목고등학교,서울특별시 양천구  안양천로 739  (신정동),415,126.873736,37.512605,1,지진실내구호소,3
46,서울특별시,강서구,등서초등학교 운동장,서울특별시 강서구 화곡동   1130-4,1650,126.855028,37.551788,2,지진옥외대피소,3
46,서울특별시,동대문구,답십리1동 주민센터,서울특별시 동대문구  사가정로 30  (답십리동),323,127.051136,37.571959,1,지진실내구호소,3
46,서울특별시,성동구,한양대부속중학교 운동장,서울특별시 성동구 사근동   223,7788,127.044181,37.562295,2,지진옥외대피소,3
46,서울특별시,양천구,신세계어린이공원,서울특별시 양천구 신정동   119-3,1674,126.8759,37.521689,2,지진옥외대피소,3
46,서울특별시,노원구,중원초등학교 운동장,서울특별시 노원구 중계동   502-0,4020,127.062765,37.643784,2,지진옥외대피소,3
46,서울특별시,송파구,문정고등학교 운동장,서울특별시 송파구 문정동   90,3619,127.127137,37.485204,2,지진옥외대피소,3
46,서울특별시,강동구,선린초등학교 운동장,서울특별시 강동구 둔촌동   91-17,8095,127.145749,37.529262,2,지진옥외대피소,3
46,서울특별시,영등포구,대림운동장 체육시설,서울특별시 영등포구 대림동   780-0,16498,126.894704,37.499767,2,지진옥외대피소,3
46,서울특별시,중랑구,송곡고등학교운동장,서울특별시 중랑구 망우동   239-1,4147,127.107146,37.60541,2,지진옥외대피소,3
46,서울특별시,은평구,대조공원,서울특별시 은평구 대조동   212-0,4176,126.919783,37.615506,2,지진옥외대피소,3
46,서울특별시,성동구,금호근린공원,서울특별시 성동구 금호동3가   1266-2,13468,127.018778,37.549826,2,지진옥외대피소,3
46,서울특별시,강북구,세일어린이공원,서울특별시 강북구 미아동   162-1,839,127.025234,37.633582,2,지진옥외대피소,3
46,서울특별시,동작구,서울공업고등학교,서울특별시 동작구 대방동   390-5,6200,126.9225,37.5018,2,지진옥외대피소,3
46,서울특별시,강남구,논현개나리공원,서울특별시 강남구 논현동   150-5,1653,없음,없음,2,지진옥외대피소,3
46,서울특별시,노원구,신창중학교,서울특별시 노원구  월계로45길 92  (월계동),625,127.047529,37.628032,1,지진실내구호소,3
46,서울특별시,마포구,쌈지마당,서울특별시 마포구 망원동   451-1,2850,126.89866,37.557314,2,지진옥외대피소,3
46,서울특별시,강남구,삼릉초등학교 운동장,서울특별시 강남구 삼성동   42-0,4408,127.046861,37.513257,2,지진옥외대피소,3
46,서울특별시,강동구,묘곡초등학교,서울특별시 강동구  동남로79길 46  (고덕동),970,127.15317,37.558963,1,지진실내구호소,3
47,서울특별시,강남구,학동근린공원,서울특별시 강남구 논현동   26-0,29947,없음,없음,2,지진옥외대피소,3
47,서울특별시,마포구,망원초등학교 운동장,서울특별시 마포구 망원동   467-1,1963,126.901071,37.56071,2,지진옥외대피소,3
47,서울특별시,강동구,한산초등학교운동장,서울특별시 강동구 둔촌동   149-0,6961,127.141609,37.528386,2,지진옥외대피소,3
47,서울특별시,노원구,용동초등학교 운동장,서울특별시 노원구 중계동   510-1,3270,127.069265,37.641817,2,지진옥외대피소,3
47,서울특별시,동대문구,답십리2동주민센터,서울특별시 동대문구  한천로11길 18  (답십리동),239,127.061323,37.567416,1,지진실내구호소,3
47,서울특별시,양천구,신정어린이공원,서울특별시 양천구 신정동   128-198,487,126.874789,37.520433,2,지진옥외대피소,3
47,서울특별시,중랑구,송곡여자중학교운동장,서울특별시 중랑구 망우동   252-1,6418,127.104924,37.605991,2,지진옥외대피소,3
47,서울특별시,노원구,녹천초등학교,서울특별시 노원구  마들로3길 34  (월계동),1431,127.063246,37.628931,1,지진실내구호소,3
47,서울특별시,양천구,신정종합사회복지관,서울특별시 양천구  신정중앙로 80  (신정동),596,126.860493,37.526495,1,지진실내구호소,3
47,서울특별시,강서구,구름공원,서울특별시 강서구 화곡동   98-22,833,126.844115,37.543341,2,지진옥외대피소,3
47,서울특별시,성동구,사근초등학교 운동장,서울특별시 성동구 사근동   291-5,2200,127.047668,37.562691,2,지진옥외대피소,3
47,서울특별시,은평구,응암2동마을마당,서울특별시 은평구 응암동   427-76,632,126.919589,37.594218,2,지진옥외대피소,3
47,서울특별시,영등포구,다사랑어린이공원,서울특별시 영등포구 대림동   703-6,1632,126.899428,37.492789,2,지진옥외대피소,3
47,서울특별시,송파구,서울문덕초등학교 운동장,서울특별시 송파구 문정동   90-3,2835,127.127596,37.484993,2,지진옥외대피소,3
47,서울특별시,관악구,관악중학교,서울특별시 관악구  남부순환로237길 60  (봉천동),580,126.962009,37.480729,1,지진실내구호소,3
47,서울특별시,성동구,달맞이공원,서울특별시 성동구 금호동4가   367-1,63411,127.021232,37.543654,2,지진옥외대피소,3
47,서울특별시,강남구,언주중학교 운동장,서울특별시 강남구 삼성동   28-0,7448,127.046671,37.514133,2,지진옥외대피소,3
47,서울특별시,강북구,테두리공원,서울특별시 강북구 미아동   653-154,1913,127.017195,37.618065,2,지진옥외대피소,3
47,서울특별시,동작구,영등포중학교,서울특별시 동작구 대방동   13-2,4039,126.9317,37.5081,2,지진옥외대피소,3
47,서울특별시,강동구,온조대왕문화체육관,서울특별시 강동구  동남로82길 94-56  (고덕동),7954,127.158885,37.558132,1,지진실내구호소,3
48,서울특별시,동작구,숭의여자고등학교,서울특별시 동작구 대방동   20-114,3358,126.928784,37.507843,2,지진옥외대피소,3
48,서울특별시,중랑구,동원중학교운동장,서울특별시 중랑구 망우동   85-3,5258,127.10889,37.603746,2,지진옥외대피소,3
48,서울특별시,강남구,언북중학교 운동장,서울특별시 강남구 논현동   69-0,6444,없음,없음,2,지진옥외대피소,3
48,서울특별시,은평구,응암9어린이공원,서울특별시 은평구 응암동   761-3,2244,126.922839,37.58743,2,지진옥외대피소,3
48,서울특별시,노원구,중원중학교 운동장,서울특별시 노원구 중계동   511-3,3120,127.067706,37.644242,2,지진옥외대피소,3
48,서울특별시,양천구,꿈나무어린이공원,서울특별시 양천구 신정동   1286-0,3148,126.858408,37.517655,2,지진옥외대피소,3
48,서울특별시,성동구,한양여자대학교 운동장,서울특별시 성동구 사근동   110-0,2270,127.0499,37.558147,2,지진옥외대피소,3
48,서울특별시,강남구,반달근린공원,서울특별시 강남구 삼성동   7-4,679,127.042782,37.516241,2,지진옥외대피소,3
48,서울특별시,동작구,숭실대학교,서울특별시 동작구  상도로 369  (상도동),851,126.9569,37.4965,1,지진실내구호소,3
48,서울특별시,강서구,뜸부기공원,서울특별시 강서구 화곡동   845-19,998,126.856931,37.530099,2,지진옥외대피소,3
48,서울특별시,송파구,서울문정초등학교 운동장,서울특별시 송파구 문정동   12,12767,127.12872,37.488915,2,지진옥외대피소,3
48,서울특별시,강북구,으뜸어린이공원,서울특별시 강북구 미아동   309-43,681,127.024036,37.623575,2,지진옥외대피소,3
48,서울특별시,노원구,녹천중학교,서울특별시 노원구  월계로 376  (월계동),1117,127.062212,37.631519,1,지진실내구호소,3
48,서울특별시,성동구,매봉소공원,서울특별시 성동구 옥수동   561-1,2006,127.013466,37.543594,2,지진옥외대피소,3
48,서울특별시,동대문구,장평중학교,서울특별시 동대문구  답십리로72길 158  (장안동),992,127.070703,37.566635,1,지진실내구호소,3
48,서울특별시,마포구,삼개어린이공원,서울특별시 마포구 도화동   555-1,3027,126.945229,37.540703,2,지진옥외대피소,3
48,서울특별시,영등포구,동심어린이공원,서울특별시 영등포구 대림동   742-0,2820,126.897334,37.498362,2,지진옥외대피소,3
48,서울특별시,양천구,금옥중학교 체육관,서울특별시 양천구  신정로 213  (신정동),621,126.844847,37.510638,1,지진실내구호소,3
48,서울특별시,강동구,강일중학교,서울특별시 강동구  고덕로25길 17  (암사동),11196,127.1358,37.55616,1,지진실내구호소,3
48,서울특별시,강동구,천호중학교 운동장,서울특별시 강동구 천호동   38-1,8624,127.139577,37.546398,2,지진옥외대피소,3
49,서울특별시,양천구,단지어린이공원,서울특별시 양천구 신정동   767-0,3562,126.85825,37.520918,2,지진옥외대피소,3
49,서울특별시,동대문구,안평초등학교,서울특별시 동대문구  장한로14길 61  (장안동),1096,127.071305,37.565764,1,지진실내구호소,3
49,서울특별시,양천구,신정3동현장민원실,서울특별시 양천구  남부순환로88길 5-7  (신정동),372,126.841501,37.511681,1,지진실내구호소,3
49,서울특별시,성동구,덕수고등학교 운동장,서울특별시 성동구 행당동   70-28,8640,127.042199,37.555518,2,지진옥외대피소,3
49,서울특별시,중랑구,면일초등학교운동장,서울특별시 중랑구 망우동   440,2650,127.099375,37.591981,2,지진옥외대피소,3
49,서울특별시,강남구,샘터근린공원,서울특별시 강남구 삼성동   16-4,1800,127.047407,37.515366,2,지진옥외대피소,3
49,서울특별시,동작구,서울강남초등학교,서울특별시 동작구  강남초등길 15  (상도1동),198,126.953676,37.505995,1,지진실내구호소,3
49,서울특별시,은평구,소공원,서울특별시 은평구 응암동   761-6,881,126.92565,37.587587,2,지진옥외대피소,3
49,서울특별시,강동구,명일초등학교,서울특별시 강동구  고덕로38길 8  (암사동),1171,127.142029,37.553844,1,지진실내구호소,3
49,서울특별시,강남구,신구중학교 운동장,서울특별시 강남구 신사동   621-0,6332,없음,없음,2,지진옥외대피소,3
49,서울특별시,마포구,도화소어린이공원,서울특별시 마포구 도화동   540-0,1246,126.945334,37.541021,2,지진옥외대피소,3
49,서울특별시,강북구,한빛어린이공원,서울특별시 강북구 미아동   222-20,1912,127.022834,37.627687,2,지진옥외대피소,3
49,서울특별시,동작구,서울노량진초등학교,서울특별시 동작구 노량진동   49-12,3120,126.94043,37.511921,2,지진옥외대피소,3
49,서울특별시,성동구,뚝섬유수지 공원,서울특별시 성동구 성수동1가   685-63,17800,127.040657,37.549361,2,지진옥외대피소,3
49,서울특별시,송파구,서울가원초등학교 운동장,서울특별시 송파구 문정동   150-10,2326,127.111406,37.48912,2,지진옥외대피소,3
49,서울특별시,강서구,천사공원,서울특별시 강서구 화곡동   1139-1,2395,126.832999,37.546915,2,지진옥외대피소,3
49,서울특별시,강동구,천호초등학교 운동장,서울특별시 강동구 천호동   224-21,5983,127.136443,37.547308,2,지진옥외대피소,3
49,서울특별시,동작구,송학대근린공원(노량진근린공원),서울특별시 동작구 노량진동   325-2,600,126.943459,37.509007,2,지진옥외대피소,3
49,서울특별시,노원구,용원초등학교,서울특별시 노원구  섬밭로 144  (공릉동),1227,127.068968,37.629914,1,지진실내구호소,3
49,서울특별시,노원구,상명초등학교 운동장,서울특별시 노원구 중계동   515-1,1700,127.067411,37.64852,2,지진옥외대피소,3
50,서울특별시,강남구,신사중학교 운동장,서울특별시 강남구 압구정동   410-0,7980,없음,없음,2,지진옥외대피소,3
50,서울특별시,성동구,성원중학교 운동장,서울특별시 성동구 성수동1가   277-1,2016,127.052264,37.539153,2,지진옥외대피소,3
50,서울특별시,노원구,공릉중학교,서울특별시 노원구  노원로1길 42  (공릉동),2395,127.083575,37.62217,1,지진실내구호소,3
50,서울특별시,강북구,운산어린이공원,서울특별시 강북구 미아동   165-3,995,127.023374,37.632055,2,지진옥외대피소,3
50,서울특별시,송파구,서울위례별초등학교 운동장,서울특별시 송파구 장지동   886-0,2263,없음,없음,2,지진옥외대피소,3
50,서울특별시,동작구,동양중학교,서울특별시 동작구 흑석동   198-79,5227,126.9562,37.5101,2,지진옥외대피소,3
50,서울특별시,양천구,신서고등학교,서울특별시 양천구  은행정로 42  (신정동),758,126.859937,37.523831,1,지진실내구호소,3
50,서울특별시,강서구,능골공원,서울특별시 강서구 화곡동   468-1,997,126.855311,37.536692,2,지진옥외대피소,3
50,서울특별시,동작구,서울은로초등학교,서울특별시 동작구  서달로 115  (흑석동),555,126.965121,37.508605,1,지진실내구호소,3
50,서울특별시,강남구,삼성은행나무근린공원,서울특별시 강남구 삼성동   14-0,1500,127.045775,37.516507,2,지진옥외대피소,3
50,서울특별시,강동구,강동롯데캐슬경로당,서울특별시 강동구  고덕로 131  (암사동 강동 롯데캐슬퍼스트아파트),344,127.141573,37.556659,1,지진실내구호소,3
50,서울특별시,동작구,서울본동초등학교,서울특별시 동작구 본동   50-8,1404,126.953574,37.510046,2,지진옥외대피소,3
50,서울특별시,성동구,행당초등학교 운동장,서울특별시 성동구 행당동   320-60,4585,127.034678,37.556538,2,지진옥외대피소,3
50,서울특별시,양천구,금옥중학교 운동장,서울특별시 양천구 신정동   729-0,2750,126.844261,37.510622,2,지진옥외대피소,3
50,서울특별시,노원구,청계초등학교 운동장,서울특별시 노원구 중계동   513-1,4200,127.066054,37.645104,2,지진옥외대피소,3
50,서울특별시,강동구,성덕고등학교(운동장),서울특별시 강동구 천호동   23-3,9023,127.142047,37.550531,2,지진옥외대피소,3
50,서울특별시,은평구,서울신진자동차고등학교 ,서울특별시 은평구 응암동   114-1,11738,126.918229,37.598476,2,지진옥외대피소,3
50,서울특별시,마포구,염리초등학교,서울특별시 마포구 염리동   173-4,3600,126.945809,37.54227,2,지진옥외대피소,3
50,서울특별시,동대문구,장평초등학교,서울특별시 동대문구  답십리로69길 27  (장안동),1462,127.073263,37.573809,1,지진실내구호소,3
50,서울특별시,중랑구,혜원여자고등학교운동장,서울특별시 중랑구 망우동   519-0,27593,127.09656,37.593495,2,지진옥외대피소,3
51,서울특별시,양천구,양천어르신종합복지관,서울특별시 양천구  목동로3길 106  (신정동),160,126.85841,37.512156,1,지진실내구호소,3
51,서울특별시,강동구,암사3동 주민센터,서울특별시 강동구  고덕로 137  (암사동),2460,127.14082,37.554972,1,지진실내구호소,3
51,서울특별시,동작구,대방공원(노량진근린공원),서울특별시 동작구 대방동   23-176,1700,128.928602,37.510209,2,지진옥외대피소,3
51,서울특별시,도봉구,서울오봉초등학교,서울특별시 도봉구  시루봉로 285  (도봉동),7673,127.040842,37.672739,1,지진실내구호소,3
51,서울특별시,노원구,노원초등학교 운동장,서울특별시 노원구 상계동   1014-0,4010,127.058237,37.67326,2,지진옥외대피소,3
51,서울특별시,강동구,강동초등학교 운동장,서울특별시 강동구 천호동   306,7452,127.12997,37.54592,2,지진옥외대피소,3
51,서울특별시,성동구,성수중학교 운동장,서울특별시 성동구 성수동1가   685-143,3002,127.038701,37.548219,2,지진옥외대피소,3
51,서울특별시,중랑구,면북초등학교,서울특별시 중랑구 망우동   119-0,2349,127.103491,37.594375,2,지진옥외대피소,3
51,서울특별시,송파구,문현중학교 운동장,서울특별시 송파구 장지동   838-3,2652,127.127814,37.480402,2,지진옥외대피소,3
51,서울특별시,강남구,삼성목련공원,서울특별시 강남구 삼성동   55-1,1641,127.054043,37.518573,2,지진옥외대피소,3
51,서울특별시,은평구,포수동어린이공원,서울특별시 은평구 응암동   115-25,988,126.919459,37.598181,2,지진옥외대피소,3
51,서울특별시,마포구,용강초등학교 운동장 ,서울특별시 마포구 대흥동   35-1,3641,126.944122,37.549086,2,지진옥외대피소,3
51,서울특별시,동작구,중앙대학교 체육관,서울특별시 동작구  흑석로 84  (흑석동),941,126.955559,37.504522,1,지진실내구호소,3
51,서울특별시,서초구,반원초등학교,서울특별시 서초구 잠원동   72,6098,127.004053,37.510046,2,지진옥외대피소,3
51,서울특별시,강서구,무지개공원,서울특별시 강서구 화곡동   806-10,976,126.861299,37.533931,2,지진옥외대피소,3
51,서울특별시,성동구,행당어린이 공원,서울특별시 성동구 행당동   128-1,2318,127.036303,37.557369,2,지진옥외대피소,3
51,서울특별시,동대문구,청량중학교,서울특별시 동대문구  왕산로 301  (청량리동),2007,127.050854,37.588197,1,지진실내구호소,3
51,서울특별시,동작구,서울영본초등학교,서울특별시 동작구 본동   441-11,2683,126.948617,37.510616,2,지진옥외대피소,3
51,서울특별시,양천구,남명초등학교 운동장,서울특별시 양천구 신정동   653-4,5900,126.853887,37.515394,2,지진옥외대피소,3
51,서울특별시,강북구,수송중학교운동장,서울특별시 강북구 번동   456-1,11109,127.033653,37.636651,2,지진옥외대피소,3
52,서울특별시,강동구,신암중학교,서울특별시 강동구  고덕로 65  (암사동),2311,127.133081,37.555645,1,지진실내구호소,3
52,서울특별시,강서구,화일초등학교 교사동,서울특별시 강서구  까치산로10길 70  (화곡동),3347,126.847534,37.540593,1,지진실내구호소,3
52,서울특별시,동대문구,경희고등학교,서울특별시 동대문구  경희대로 26  (회기동),997,127.05484,37.594938,1,지진실내구호소,3
52,서울특별시,도봉구,누원고등학교,서울특별시 도봉구  마들로 849  (도봉동),3378,127.050468,37.685288,1,지진실내구호소,3
52,서울특별시,동작구,동작중학교,서울특별시 동작구  동작대로39가길 83  (동작동),539,126.9751,37.4954,1,지진실내구호소,3
52,서울특별시,노원구,서울수락초등학교 운동장,서울특별시 노원구 상계동   1171-2,4930,127.054631,37.684172,2,지진옥외대피소,3
52,서울특별시,중랑구,신내초등학교운동장,서울특별시 중랑구 신내동   444-0,11217,127.099993,37.604131,2,지진옥외대피소,3
52,서울특별시,동작구,노들나루공원,서울특별시 동작구 본동   258-1,44580,126.953705,37.515104,2,지진옥외대피소,3
52,서울특별시,양천구,신기초등학교 운동장,서울특별시 양천구 신정동   1274-0,6440,126.845014,37.510056,2,지진옥외대피소,3
52,서울특별시,마포구,숭문중고등학교,서울특별시 마포구 대흥동   28-14,17990,126.945508,37.551656,2,지진옥외대피소,3
52,서울특별시,강동구,동신중학교 운동장,서울특별시 강동구 천호동   447-9,12134,127.134121,37.536598,2,지진옥외대피소,3
52,서울특별시,강서구,더부리공원,서울특별시 강서구 화곡동   339-19,1364,126.846757,37.534834,2,지진옥외대피소,3
52,서울특별시,서초구,경원중학교,서울특별시 서초구 잠원동   66-1,6720,127.009314,37.51105,2,지진옥외대피소,3
52,서울특별시,은평구,참다래공원,서울특별시 은평구 응암동   120-22,860,126.917329,37.595358,2,지진옥외대피소,3
52,서울특별시,성동구,소월아트홀 광장,서울특별시 성동구 행당동   142-16,1659,127.035838,37.559398,2,지진옥외대피소,3
52,서울특별시,강남구,삼성까치공원,서울특별시 강남구 삼성동   85-0,1463,127.06071,37.51824,2,지진옥외대피소,3
52,서울특별시,송파구,문현고등학교 운동장,서울특별시 송파구 장지동   838,2275,127.129035,37.48113,2,지진옥외대피소,3
52,서울특별시,강북구,번남어린이공원,서울특별시 강북구 번동   447-1,1014,127.02491,37.635814,2,지진옥외대피소,3
52,서울특별시,성동구,향림공원,서울특별시 성동구 성수동2가   289-28,987,127.053453,37.546694,2,지진옥외대피소,3
52,서울특별시,동작구,보라매공원,서울특별시 동작구 신대방동   395-0,20000,126.919917,37.491827,2,지진옥외대피소,3
53,서울특별시,강북구,샛강어린이공원,서울특별시 강북구 번동   472-39,991,127.032995,37.639345,2,지진옥외대피소,3
53,서울특별시,노원구,노일초등학교 운동장,서울특별시 노원구 상계동   1044-2,2360,127.054547,37.673593,2,지진옥외대피소,3
53,서울특별시,성동구,무학여자고등학교 운동장,서울특별시 성동구 행당동   322-1,1178,127.032676,37.55721,2,지진옥외대피소,3
53,서울특별시,성동구,성수공원,서울특별시 성동구 성수동2가   302-25,5197,127.052505,37.544711,2,지진옥외대피소,3
53,서울특별시,양천구,신은초등학교 운동장,서울특별시 양천구 신정동   1319-0,1200,126.829922,37.51337,2,지진옥외대피소,3
53,서울특별시,중랑구,중화초등학교운동장,서울특별시 중랑구 신내동   531,2900,127.094646,37.603004,2,지진옥외대피소,3
53,서울특별시,동작구,서울동작초등학교,서울특별시 동작구  동작대로29길 214  (사당동),922,126.9748,37.4939,1,지진실내구호소,3
53,서울특별시,송파구,서울문현초등학교 운동장,서울특별시 송파구 장지동   836,2184,127.130223,37.482657,2,지진옥외대피소,3
53,서울특별시,강동구,성내초등학교 운동장,서울특별시 강동구 성내동   300-3,8302,127.122465,37.531276,2,지진옥외대피소,3
53,서울특별시,동작구,상현중학교,서울특별시 동작구 상도동   111-52,2368,126.9611,37.4941,2,지진옥외대피소,3
53,서울특별시,관악구,원당초등학교 운동장,서울특별시 관악구 봉천동   1669-1,6605,126.956174,37.481098,2,지진옥외대피소,3
53,서울특별시,강동구,선사고등학교,서울특별시 강동구  고덕로25길 17  (암사동),1738,127.1358,37.55616,1,지진실내구호소,3
53,서울특별시,도봉구,도봉중학교,서울특별시 도봉구  마들로 671  (도봉동),1109,127.045671,37.670556,1,지진실내구호소,3
53,서울특별시,서초구,코아어린이공원,서울특별시 서초구 잠원동   72-2,1717,없음,없음,2,지진옥외대피소,3
53,서울특별시,광진구,광양고등학교,서울특별시 광진구  자양로3가길 31  (자양동),684,127.086086,37.529349,1,지진실내구호소,3
53,서울특별시,마포구,창천초등학교 운동장 ,서울특별시 마포구 노고산동   33-1,3400,126.939417,37.554733,2,지진옥외대피소,3
53,서울특별시,강남구,배꽃근린공원,서울특별시 강남구 삼성동   11-3,1593,127.044591,37.516291,2,지진옥외대피소,3
53,서울특별시,강서구,발산초등학교 체육관,서울특별시 강서구  강서로45길 113  (내발산동),9714,126.830947,37.549937,1,지진실내구호소,3
53,서울특별시,강서구,배다리공원,서울특별시 강서구 화곡동   341-24,1630,126.8483,37.532078,2,지진옥외대피소,3
53,서울특별시,은평구,역촌초등학교 운동장,서울특별시 은평구 역촌동   82-1,3500,126.914348,37.601761,2,지진옥외대피소,3
54,서울특별시,중랑구,신현초등학교운동장,서울특별시 중랑구 신내동   663-0,3054,127.093668,37.605396,2,지진옥외대피소,3
54,서울특별시,노원구,수락중학교 운동장,서울특별시 노원구 상계동   1254-0,4030,127.05459,37.683195,2,지진옥외대피소,3
54,서울특별시,동작구,숭실대학교,서울특별시 동작구 상도동   511-0,7904,126.9569,37.4965,2,지진옥외대피소,3
54,서울특별시,강남구,단대부속고등학교 운동장,서울특별시 강남구 대치동   1013-0,7800,127.056675,37.496492,2,지진옥외대피소,3
54,서울특별시,강동구,천호중학교,서울특별시 강동구  상암로 153  (천호동),12982,127.139577,37.546398,1,지진실내구호소,3
54,서울특별시,관악구,새싹어린이공원,서울특별시 관악구 봉천동   1512-9,1796,126.949537,37.484459,2,지진옥외대피소,3
54,서울특별시,마포구,한서초등학교 운동장(염리동),서울특별시 마포구 염리동   24-140,9973,126.949611,37.553415,2,지진옥외대피소,3
54,서울특별시,광진구,광진중,서울특별시 광진구  뚝섬로64길 45  (자양동),4277,127.052379,37.315611,1,지진실내구호소,3
54,서울특별시,성동구,성삼공원,서울특별시 성동구 성수동2가   273-11,1812,127.060195,37.54197,2,지진옥외대피소,3
54,서울특별시,동작구,사당중학교,서울특별시 동작구  사당로9가길 58  (사당동),1131,126.968895,37.487813,1,지진실내구호소,3
54,서울특별시,서초구,반원공원,서울특별시 서초구 잠원동   72-1,6021,없음,없음,2,지진옥외대피소,3
54,서울특별시,강북구,벌말어린이공원,서울특별시 강북구 번동   235,4632,127.039674,37.629678,2,지진옥외대피소,3
54,서울특별시,성동구,무학중학교 운동장,서울특별시 성동구 행당동   322-1,2400,127.032316,37.557433,2,지진옥외대피소,3
54,서울특별시,송파구,방이공원,서울특별시 송파구 방이동   52,6930,127.113852,37.514276,2,지진옥외대피소,3
54,서울특별시,도봉구,효문고등학교,서울특별시 도봉구  우이천로 432  (쌍문동),1309,127.018175,37.652557,1,지진실내구호소,3
54,서울특별시,강동구,성내중학교(운동장),서울특별시 강동구 성내동   530-0,1056,127.129711,37.529172,2,지진옥외대피소,3
54,서울특별시,강서구,양천초등학교운동장,서울특별시 강서구 가양동   272-11,2145,126.83946,37.570024,2,지진옥외대피소,3
54,서울특별시,양천구,신서고등학교  운동장,서울특별시 양천구 신정동   984-1,1430,126.860093,37.523787,2,지진옥외대피소,3
54,서울특별시,강서구,삼정초등학교 체육관,서울특별시 강서구  금낭화로 222  (방화동),540,126.810278,37.580104,1,지진실내구호소,3
54,서울특별시,은평구,역말공원,서울특별시 은평구 역촌동   47-1,966,126.914084,37.606825,2,지진옥외대피소,3
55,서울특별시,서초구,방배중학교,서울특별시 서초구 반포동   586-1,1485,126.998495,37.494511,2,지진옥외대피소,3
55,서울특별시,관악구,송학어린이공원,서울특별시 관악구 봉천동   877-21,1012,126.949352,37.480333,2,지진옥외대피소,3
55,서울특별시,도봉구,서울쌍문초등학교,서울특별시 도봉구  우이천로 360  (쌍문동),6914,127.024391,37.648603,1,지진실내구호소,3
55,서울특별시,은평구,역마을공원,서울특별시 은평구 역촌동   39-2,949,126.91844,37.601073,2,지진옥외대피소,3
55,서울특별시,강동구,길동초등학교 운동장,서울특별시 강동구 길동   362,9095,127.144465,37.538249,2,지진옥외대피소,3
55,서울특별시,송파구,보성중학교 운동장,서울특별시 송파구 방이동   89-22,13936,127.13463,37.519705,2,지진옥외대피소,3
55,서울특별시,중랑구,봉화초등학교운동장,서울특별시 중랑구 신내동   655-0,6536,127.091978,37.613223,2,지진옥외대피소,3
55,서울특별시,강서구,가양초등학교운동장,서울특별시 강서구 가양동   1484,2310,126.859024,37.561695,2,지진옥외대피소,3
55,서울특별시,마포구,신석초등학교 운동장,서울특별시 마포구 신수동   445-1,1282,126.937764,37.543817,2,지진옥외대피소,3
55,서울특별시,강남구,대현초등학교 운동장,서울특별시 강남구 대치동   969,8585,127.063879,37.503568,2,지진옥외대피소,3
55,서울특별시,동작구,서울강남초등학교,서울특별시 동작구 상도1동   501-1,2501,126.952734,37.506149,2,지진옥외대피소,3
55,서울특별시,강북구,버드나무어린이공원,서울특별시 강북구 번동   228,5070,127.034399,37.633975,2,지진옥외대피소,3
55,서울특별시,강서구,방원중학교 체육관,서울특별시 강서구  금낭화로 268  (방화동),900,126.808814,37.575758,1,지진실내구호소,3
55,서울특별시,광진구,신자초,서울특별시 광진구  뚝섬로46길 64  (자양동),2060,127.043162,37.314834,1,지진실내구호소,3
55,서울특별시,강동구,강동초등학교,서울특별시 강동구  상암로14길 77  (천호동),2009,127.12997,37.54592,1,지진실내구호소,3
55,서울특별시,동작구,서울삼일초등학교,서울특별시 동작구  사당로23나길 27  (사당동),630,126.9751,37.4883,1,지진실내구호소,3
55,서울특별시,노원구,노일중학교,서울특별시 노원구 상계동   1044-0,4580,127.053616,37.673181,2,지진옥외대피소,3
55,서울특별시,성동구,응봉초등학교 운동장,서울특별시 성동구 응봉동   193-0,429,127.033748,37.550166,2,지진옥외대피소,3
55,서울특별시,성동구,송정동 거주자우선 주차장,서울특별시 성동구 송정동   72-242,1747,127.068453,37.553355,2,지진옥외대피소,3
55,서울특별시,양천구,앞산어린이공원,서울특별시 양천구 신정동   910-9,1050,126.858605,37.526389,2,지진옥외대피소,3
56,서울특별시,송파구,서울방산초등학교 운동장,서울특별시 송파구 방이동   220-4,4976,127.12097,37.509378,2,지진옥외대피소,3
56,서울특별시,강동구,광문고등학교(운동장),서울특별시 강동구 고덕동   295-0,6720,127.158191,37.560291,2,지진옥외대피소,3
56,서울특별시,동작구,서울신상도초등학교,서울특별시 동작구 상도동   산65-59,1974,126.944086,37.50038,2,지진옥외대피소,3
56,서울특별시,강서구,염경초등학교 강당,서울특별시 강서구  양천로69길 49  (염창동),12000,126.871235,37.554774,1,지진실내구호소,3
56,서울특별시,성북구,돈암초등학교(운동장),서울특별시 성북구 동소문동6가   27-1,2019,127.012697,37.593451,2,지진옥외대피소,3
56,서울특별시,강동구,해공도서관,서울특별시 강동구  올림픽로 702  (천호동),1932,127.126409,37.544355,1,지진실내구호소,3
56,서울특별시,양천구,양목초등학교 운동장,서울특별시 양천구 신정동   1001-0,3468,126.86164,37.52365,2,지진옥외대피소,3
56,서울특별시,성동구,용답근린 공원,서울특별시 성동구 용답동   128-3,6046,127.047262,37.570031,2,지진옥외대피소,3
56,서울특별시,관악구,충효어린이공원,서울특별시 관악구 봉천동   1526-1,3187,126.940974,37.481059,2,지진옥외대피소,3
56,서울특별시,도봉구,백운중학교,서울특별시 도봉구  도봉로129길 50  (쌍문동),1237,127.035956,37.656046,1,지진실내구호소,3
56,서울특별시,성동구,광희중학교 운동장,서울특별시 성동구 응봉동   193-0,3927,127.033941,37.551102,2,지진옥외대피소,3
56,서울특별시,강북구,수유1공원,서울특별시 강북구 수유동   605-389,2632,127.01484,37.630671,2,지진옥외대피소,3
56,서울특별시,동작구,영등포고등학교,서울특별시 동작구  등용로8길 5  (대방동),13074,126.933666,37.508253,1,지진실내구호소,3
56,서울특별시,노원구,신상계초등학교 운동장,서울특별시 노원구 상계동   86-1,2560,127.075815,37.667926,2,지진옥외대피소,3
56,서울특별시,마포구,신수중학교 운동장,서울특별시 마포구 신수동   371-1,3444,126.933646,37.546075,2,지진옥외대피소,3
56,서울특별시,은평구,인조유기비공원,서울특별시 은평구 역촌동   8-11,1256,126.91653,37.608791,2,지진옥외대피소,3
56,서울특별시,강서구,아름공원,서울특별시 강서구 가양동   1465,1956,126.848677,37.568713,2,지진옥외대피소,3
56,서울특별시,서초구,서래초등학교,서울특별시 서초구 방배동   771,3200,126.989243,37.496004,2,지진옥외대피소,3
56,서울특별시,광진구,광양중,서울특별시 광진구  자양로3길 7  (자양동),2670,127.050971,37.314839,1,지진실내구호소,3
56,서울특별시,강남구,도곡초등학교 운동장,서울특별시 강남구 대치동   924-10,8080,127.054664,37.499055,2,지진옥외대피소,3
57,서울특별시,강북구,삼산길마을마당,서울특별시 강북구 수유동   535-154,506,127.003721,37.643394,2,지진옥외대피소,3
57,서울특별시,영등포구,영림초등학교,서울특별시 영등포구  시흥대로173길 14  (대림동),567,126.902911,37.487178,1,지진실내구호소,3
57,서울특별시,성동구,금북초등학교 운동장,서울특별시 성동구 금호동1가   48-2,1719,127.023507,37.557059,2,지진옥외대피소,3
57,서울특별시,동작구,장승중학교,서울특별시 동작구 상도동   175-1,2100,126.9405,37.5034,2,지진옥외대피소,3
